stop_id,stop_name,stop_lat,stop_lon
HANMAIN,HANSON ST & E MAIN ST,39.956666,-82.77903
MOUWAYW,W MOUND ST & S WAYNE AVE,39.938547,-83.062991
MAIHOLE,E MAIN ST & HOLTZMAN AVE,39.957308,-82.945897
MOREASS,MORSE CROSSING & EASTON WAY,40.048117,-82.920331
SOUTER4,COTA TRANSIT TERMINAL BAY 4,39.957065,-82.999017
SOUTER7,COTA TRANSIT TERMINAL BAY 7,39.956717,-82.998851
NORTER3,SPRING ST TERMINAL BAY 3,39.965808,-83.002412
SOUTER9,COTA TRANSIT TERMINAL BAY 9,39.956503,-82.998803
NORTER4,SPRING ST TERMINAL BAY 4,39.965718,-83.002388
SOUTER3,COTA TRANSIT TERMINAL BAY 3,39.957128,-82.998935
SOUTER6,COTA TRANSIT TERMINAL BAY 6,39.956878,-82.998969
SOUTER8,COTA TRANSIT TERMINAL BAY 8,39.956655,-82.998934
SOUTER5,COTA TRANSIT TERMINAL BAY 5,39.956931,-82.998899
NORTER1,SPRING ST TERMINAL BAY 1,39.965968,-83.002436
NORTER5,SPRING ST TERMINAL BAY 5,39.965638,-83.002376
TECAEPE,TECHCENTER DR & AEP,39.999869,-82.853016
HIGHOSS,S HIGH ST & HOSACK ST,39.92302,-82.995545
LIVBULW,E LIVINGSTON AVE & BULEN AVE,39.948836,-82.951647
CLEMOUN,CLEVELAND AVE & MOUNT VERNON AVE,39.969554,-82.99037
CLEJACN,CLEVELAND AVE & JACK GIBBS BLVD,39.972493,-82.990132
CLE2NDN,CLEVELAND AVE & E 2ND AVE,39.981514,-82.989457
CLE3RDN,CLEVELAND AVE & E 3RD AVE,39.983318,-82.989321
CLESHON,CLEVELAND AVE & SHOEMAKER AVE,39.988178,-82.987305
CLECAMN,CLEVELAND AVE & CAMDEN AVE,39.990831,-82.984583
CLE11TN,CLEVELAND AVE & E 11TH AVE,39.993413,-82.981879
CLECHIN,CLEVELAND AVE & CHITTENDEN AVE,39.995615,-82.979577
CLEWINN,CLEVELAND AVE & WINDSOR AVE,39.997133,-82.977974
CLE15TN,CLEVELAND AVE & E 15TH AVE,39.998468,-82.976803
CLE17TN,CLEVELAND AVE & E 17TH AVE,40.000161,-82.975688
RIDREDW,RIDGECLIFF RD & REDDING RD,40.023016,-83.070025
CLE19TN,CLEVELAND AVE & E 19TH AVE,40.002498,-82.974205
CLE23RN,CLEVELAND AVE & E 23RD AVE,40.005664,-82.972204
CLE25TN,CLEVELAND AVE & E 25TH AVE,40.006947,-82.971424
CLEDUXN,CLEVELAND AVE & DUXBERRY AVE,40.008692,-82.970345
CLECORN,CLEVELAND AVE & CORDELL AVE,40.011141,-82.968854
CLEHUDN,CLEVELAND AVE & E HUDSON ST,40.013473,-82.967418
CLEREPN,CLEVELAND AVE & REPUBLIC AVE,40.015552,-82.966119
CLEGENN,CLEVELAND AVE & GENESSEE AVE,40.018498,-82.964969
CLELINN,CLEVELAND AVE & LINDEN PL,40.020066,-82.964835
CLEWEBN,CLEVELAND AVE & E WEBER RD,40.022961,-82.964612
CLELAKN,CLEVELAND AVE & E LAKEVIEW AVE,40.025778,-82.964395
CLENORBN,CLEVELAND AVE & E NORTH BROADWAY,40.029775,-82.964074
CLEOAKN,CLEVELAND AVE & OAKLAND PARK AVE,40.031563,-82.9639
CLEHUYN,CLEVELAND AVE & HUY RD,40.034844,-82.963432
INNDERE,INNIS RD & DERBYSHIRE DR,40.037124,-82.958278
INNUSPW,INNIS RD & US POSTAL SERVICE,40.037179,-82.955294
3401CLES,3401 CLEVELAND AVE,40.035916,-82.963297
CLEOAKS,CLEVELAND AVE & OAKLAND PARK AVE,40.03154,-82.964134
CLENORS,CLEVELAND AVE & E NORTH BROADWAY,40.029236,-82.964277
CLEWELS,CLEVELAND AVE & WELDON AVE,40.027433,-82.964417
CLELAKS,CLEVELAND AVE & E LAKEVIEW AVE,40.025441,-82.964577
CLEWEBS,CLEVELAND AVE & E WEBER RD,40.02293,-82.964823
CLEABES,CLEVELAND AVE & ABERDEEN AVE,40.02034,-82.965028
CLEGENS,CLEVELAND AVE & GENESSEE AVE,40.019214,-82.965118
CLEHUDS,CLEVELAND AVE & E HUDSON ST,40.013425,-82.967624
CLECORS,CLEVELAND AVE & CORDELL AVE,40.010981,-82.969128
CLEMAYS,CLEVELAND AVE & E MAYNARD AVE,40.009574,-82.969991
CLE26TS,CLEVELAND AVE & E 26TH AVE,40.007815,-82.971065
CLE24TS,CLEVELAND AVE & E 24TH AVE,40.006441,-82.971912
CLE22NS,CLEVELAND AVE & E 22ND AVE,40.004542,-82.97307
CLE18TS,CLEVELAND AVE & E 18TH AVE,40.001395,-82.975098
CLE17TS,CLEVELAND AVE & E 17TH AVE,39.99993,-82.976077
CLE15TS,CLEVELAND AVE & E 15TH AVE,39.998827,-82.976748
CLECHIS,CLEVELAND AVE & CHITTENDEN AVE,39.995158,-82.980264
CLE11TS,CLEVELAND AVE & E 11TH AVE,39.993929,-82.981548
CLECAMS,CLEVELAND AVE & CAMDEN AVE,39.990797,-82.984812
CLEESSS,CLEVELAND AVE & ESSEX AVE,39.98779,-82.987898
CLEREYS,CLEVELAND AVE & REYNOLDS AVE,39.981173,-82.989635
CLE427S,427 CLEVELAND AVE,39.972679,-82.990338
CLEMOUS,CLEVELAND AVE & MOUNT VERNON AVE,39.969412,-82.990554
BRODOUE,E BROAD ST & S DOUGLAS ST,39.964733,-82.977962
BROMAPE,E BROAD ST & MAPLEWOOD AVE,39.973168,-82.901904
BROCOLE,E BROAD ST & COLLINGWOOD AVE,39.973432,-82.899294
BROHOLE,E BROAD ST & HOLIDAY LANES,39.975546,-82.879085
BROCARE,E BROAD ST & CARDINAL PARK DR,39.977563,-82.860342
BROCARW,E BROAD ST & CARDINAL PARK DR,39.977818,-82.859826
HAMETNN,S HAMILTON RD & ETNA RD,39.964279,-82.875928
HIGRUSN,N HIGH ST & E RUSSELL ST,39.975825,-83.003188
HIGBUTN,N HIGH ST & BUTTLES AVE,39.977556,-83.00353
HIG2NDN,N HIGH ST & E 2ND AVE,39.983318,-83.004658
HIG4THN,N HIGH ST & E 4TH AVE,39.985183,-83.005031
HIG5THN,N HIGH ST & E 5TH AVE,39.987609,-83.005524
HIG6THN,N HIGH ST & E 6TH AVE,39.989174,-83.005819
HIGEUCN,N HIGH ST & EUCLID AVE,39.991224,-83.006225
HIGCHIN,N HIGH ST & CHITTENDEN AVE,39.99602,-83.007178
HIG13TN,N HIGH ST & E 13TH AVE,39.997729,-83.007506
HIG15TN,N HIGH ST & E 15TH AVE,40.000285,-83.007989
HIGWOON,N HIGH ST & W WOODRUFF AVE,40.003566,-83.008642
HIGLANN,N HIGH ST & E LANE AVE,40.006365,-83.00921
HIGNORN,N HIGH ST & E NORTHWOOD AVE,40.007789,-83.00949
HIGPATN,N HIGH ST & PATTERSON AVE,40.009907,-83.010044
HIGBLAN,N HIGH ST & E BLAKE AVE,40.011654,-83.0105
HIGHUDN,N HIGH ST & E HUDSON ST,40.01426,-83.011194
HIGDODN,N HIGH ST & E DODRIDGE ST,40.016549,-83.011808
HIGOLEN,N HIGH ST & OLENTANGY ST,40.019489,-83.012549
HIGKELN,N HIGH ST & E KELSO RD,40.021572,-83.0131
HIGWEBN,N HIGH ST & E WEBER RD,40.024318,-83.013843
HIGPACN,N HIGH ST & E PACEMONT RD,40.026515,-83.014402
HIGCOMN,N HIGH ST & E COMO AVE,40.028486,-83.014928
HIGNORN1,N HIGH ST & E NORTH BROADWAY,40.031894,-83.01582
HIGTORN,N HIGH ST & E TORRENCE RD,40.03504,-83.016675
HIGGLENN,N HIGH ST & GLENCOE RD,40.037462,-83.017317
HIGFALN,N HIGH ST & FALLIS RD,40.039262,-83.017799
HIGACTN,N HIGH ST & ACTON RD,40.041043,-83.018284
HIGGLEN,N HIGH ST & GLENMONT AVE,40.044801,-83.0193
HIGINDN,N HIGH ST & INDIAN SPRINGS DR,40.047648,-83.020074
HIGCOON,N HIGH ST & E COOKE RD,40.050206,-83.020081
HIGSCHN,N HIGH ST & E SCHREYER PL,40.05243,-83.019959
HIGWEIN,N HIGH ST & E WEISHEIMER RD,40.055285,-83.019802
HIGBEAN,N HIGH ST & E BEAUMONT RD,40.057521,-83.019665
HIGLELN,N HIGH ST & LELAND AVE,40.06335,-83.019332
HIG522N,5220 N HIGH ST,40.068606,-83.019063
HIGKANN,N HIGH ST & E KANAWHA AVE,40.070938,-83.018945
HIGMEAN,N HIGH ST & MEADOWLARK LN,40.07339,-83.018818
HIGSELN,N HIGH ST & E SELBY BLVD,40.077079,-83.018629
HIGSOUTN,N HIGH ST & E SOUTHINGTON AVE,40.080403,-83.018454
HIGSOUN,HIGH ST & E SOUTH ST,40.084195,-83.018254
HIGNEWN,HIGH ST & NEW ENGLAND AVE,40.086581,-83.018122
HIG161N,N HIGH ST & STATE ROUTE 161,40.088592,-83.017994
HIGSTAFN,HIGH ST & STAFFORD AVE,40.090752,-83.01787
HIGNORN3,HIGH ST & E NORTH ST,40.092811,-83.017755
HIGLARN,N HIGH ST & LARRIMER AVE,40.099024,-83.01732
HIGHALN,N HIGH ST & HALLIGAN AVE,40.103554,-83.017036
NORWILSS,NORTHWEST BLVD & WILSHIRE DR,40.009723,-83.058083
HARLAUS,HARRISBURG PIKE & LAUREL AVE,39.934689,-83.045082
BRO1STS,BROADWAY & 1ST AVE,39.899425,-83.079517
HIGSTAS,S HIGH ST & W STATE ST,39.960285,-83.000381
HIGWORS,N HIGH ST & WORTHINGTON GALENA RD,40.095437,-83.017751
HIGNORTS,N HIGH ST & W NORTH ST,40.092656,-83.017952
HIGSTAFS,HIGH ST & STAFFORD AVE,40.091242,-83.018032
HIG161S,N HIGH ST & STATE ROUTE 161,40.08914,-83.018156
HIGNEWS,HIGH ST & NEW ENGLAND AVE,40.086901,-83.018295
HIGSOUS,N HIGH ST & W SOUTH ST,40.084588,-83.018448
HIGSOUTS,N HIGH ST & W SOUTHINGTON AVE,40.080338,-83.018668
HIGSELS,N HIGH ST & W SELBY BLVD,40.076818,-83.018842
HIGBROAS,N HIGH ST & BROADMEADOWS BLVD,40.073281,-83.019023
HIGKANS,N HIGH ST & W KANAWHA AVE,40.071322,-83.019137
HIGFENS,N HIGH ST & FENWAY RD,40.067701,-83.019307
HIG521S,5211 N HIGH ST,40.068938,-83.019253
HIGGRA2S,N HIGH ST & GRACELAND BLVD 2,40.064672,-83.019459
HIGJEFS,N HIGH ST & E JEFFREY PL,40.061622,-83.019633
HIGBEES,N HIGH ST & W BEECHWOLD BLVD,40.058736,-83.019785
HIGSHES,N HIGH ST & SHEFFIELD RD,40.056126,-83.019942
HIGHENS,N HIGH ST & W HENDERSON RD,40.05161,-83.0202
HIGCOOS,N HIGH ST & W COOKE RD,40.049481,-83.020322
HIGWESS,N HIGH ST & WESTWOOD RD,40.046871,-83.020053
HIGBLES,N HIGH ST & BLENHEIM RD,40.044104,-83.019309
HIGCHAS,N HIGH ST & CHATHAM RD,40.042096,-83.018767
HIGAMAS,N HIGH ST & AMAZON PL,40.0403,-83.018287
HIGNORMS,N HIGH ST & NORTHMOOR PL,40.036224,-83.017185
HIGKENS,N HIGH ST & W KENWORTH RD,40.032893,-83.016325
HIGNORS,N HIGH ST & W NORTH BROADWAY ST,40.030851,-83.015793
HIGLAKS,N HIGH ST & W LAKEVIEW AVE,40.027295,-83.01485
HIGWEBS,N HIGH ST & W WEBER RD,40.024689,-83.014164
HIGCRES,N HIGH ST & CRESTVIEW RD,40.022585,-83.013612
HIGOLES,N HIGH ST & OLENTANGY ST,40.019816,-83.01288
HIGDODS,N HIGH ST & W DODRIDGE ST,40.016273,-83.011874
HIGHUDS,N HIGH ST & W HUDSON ST,40.014079,-83.011307
HIGMAYS,N HIGH ST & W MAYNARD AVE,40.01139,-83.010561
HIGOAKS,N HIGH ST & W OAKLAND AVE,40.009249,-83.010043
HIGNORWS,N HIGH ST & W NORTHWOOD AVE,40.007766,-83.009657
HIG15TS,N HIGH ST & E 15TH AVE,39.999731,-83.008093
HIG13TS,N HIGH ST & E 13TH AVE,39.998105,-83.00777
HIGCHIS,N HIGH ST & CHITTENDEN AVE,39.995901,-83.007325
HIG10TS,N HIGH ST & W 10TH AVE,39.993781,-83.006902
HIGKINS,N HIGH ST & KING AVE,39.990316,-83.00623
HIGCLAS,N HIGH ST & CLARK PL,39.988966,-83.005955
HIG5THS,N HIGH ST & W 5TH AVE,39.986763,-83.005527
HIG4THS,N HIGH ST & W 4TH AVE,39.98496,-83.005203
HIGSTARS,N HIGH ST & W STARR AVE,39.983037,-83.004829
HIGPRIS,N HIGH ST & PRICE AVE,39.980398,-83.004296
HIGHUBS,N HIGH ST & W HUBBARD AVE,39.978538,-83.003938
HIGBUTS,N HIGH ST & BUTTLES AVE,39.976915,-83.003575
HIGRUSS,N HIGH ST & W RUSSELL ST,39.975286,-83.00323
COLRICW,COLUMBUS ST & RICHARD AVE,39.88154,-83.080869
BRO1STN,BROADWAY & 1ST AVE,39.899293,-83.079356
HARBLUN,HARRISBURG PIKE & BLUE ROCK BLVD,39.910849,-83.069464
NEICOLN,NEIL AVE & COLLINS AVE,39.976196,-83.010772
3RDNORW,W 3RD AVE & NORTON AVE,39.984595,-83.0319
3RDOXLW,W 3RD AVE & OXLEY RD,39.984727,-83.034929
GOO868W,868 W GOODALE BLVD,39.974396,-83.027015
NORTHONW,NORTHWEST BLVD & THORNWOOD PL,39.986967,-83.04082
NOR5THN,NORTHWEST BLVD & W 5TH AVE,39.988911,-83.040689
HIGHALS,N HIGH ST & HALLIGAN AVE,40.103119,-83.017269
RIV5THS,RIVERSIDE DR & W 5TH AVE,39.989877,-83.064345
NORGLENW,NORTHWEST BLVD & GLENN AVE,39.998608,-83.052666
NORBARNW,NORTHWEST BLVD & BARRINGTON RD,39.999801,-83.054031
NORGUINW,NORTHWEST BLVD & GUILFORD RD,40.001613,-83.055291
NORBRANW,NORTHWEST BLVD & BRANDON RD,40.003121,-83.057064
MAI5THE,E MAIN ST & S 5TH ST,39.956876,-82.992364
NELAVAN,N NELSON RD & AVALON PL,39.982398,-82.94266
NELOPPN,N NELSON RD & MARGARET AVE,39.984798,-82.941564
NELAVAS,N NELSON RD & AVALON PL,39.981882,-82.94307
HIGLARS,N HIGH ST & LARRIMER AVE,40.098805,-83.017529
5TH220W,2200 W 5TH AVE,39.989715,-83.065637
5TH2200E,2200 W 5TH AVE,39.989582,-83.065361
HIGSTEN,S HIGH ST & STEWART AVE,39.941826,-82.99657
3RDNWBE,W 3RD AVE & NORTHWEST BLVD,39.984792,-83.038561
3RDOXLE,W 3RD AVE & OXLEY RD,39.984633,-83.034702
NEICOLS,NEIL AVE & COLLINS AVE,39.976044,-83.010961
NEIGOOS,NEIL AVE & W GOODALE ST,39.974442,-83.010669
4TH803N,803 N 4TH ST,39.979403,-82.998052
4TH2NDN,N 4TH ST & E 2ND AVE,39.982598,-82.998669
4THDETN,N 4TH ST & DETROIT AVE,39.984476,-82.999031
4TH5THN,N 4TH ST & E 5TH AVE,39.987295,-82.999474
4TH9THN,N 4TH ST & E 9TH AVE,39.993087,-82.999114
4THCHIN,N 4TH ST & CHITTENDEN AVE,39.995224,-82.998979
4TH15TN,N 4TH ST & E 15TH AVE,39.999446,-82.998671
4TH18TN,N 4TH ST & E 18TH AVE,40.002163,-82.998477
4THLANN,N 4TH ST & E LANE AVE,40.005627,-82.998235
4THALDN,4TH ST & ALDEN AVE,40.008527,-82.99804
4THMAYN,N 4TH ST & MAYNARD AVE,40.011384,-82.997832
4THCLIN,N 4TH ST & CLINTON ST,40.013338,-82.997682
HUDSUMW,E HUDSON ST & SUMMIT ST,40.015189,-83.000464
INDARCN,INDIANOLA AVE & E ARCADIA AVE,40.017252,-83.001975
INDMILN,INDIANOLA AVE & MILFORD AVE,40.02605,-83.001383
INDCOMN,INDIANOLA AVE & E COMO AVE,40.027912,-83.00125
INDCLIN,INDIANOLA AVE & CLINTON HGTS AVE,40.029849,-83.001069
INDNORN,INDIANOLA AVE & E N BROADWAY,40.031582,-83.000921
INDPIEN,INDIANOLA AVE & PIEDMONT RD,40.034704,-83.000719
INDTORN,INDIANOLA AVE & TORRENCE RD,40.036662,-83.000581
INDFALN,INDIANOLA AVE & FALLIS RD,40.038868,-83.000428
INDNORTN,INDIANOLA AVE & NORTHRIDGE RD,40.041894,-83.000154
INDGLEN,INDIANOLA AVE & GLENMONT AVE,40.04407,-82.999992
INDCOON,INDIANOLA AVE & E COOKE RD,40.049251,-82.999786
INDWEIN,INDIANOLA AVE & E WEISHEIMER RD,40.054291,-83.000236
INDBEAN,INDIANOLA AVE & E BEAUMONT RD,40.05721,-83.000502
INDJEFN,INDIANOLA AVE & E JEFFREY PL,40.060612,-83.000946
MORCOLW,MORSE RD & COLERAIN AVE,40.06185,-83.003354
MORBEEW,MORSE RD & BEECH HILL AVE,40.061968,-83.00614
MORELKW,MORSE RD & ELKS DR,40.062147,-83.010863
MORFOSW,MORSE RD & FOSTER ST,40.062298,-83.014237
MORBEECW,MORSE RD & BEECHMONT DR,40.062398,-83.016365
BROOLDW,W BROAD ST & OLD VILLAGE RD,39.95257,-83.124184
MORFOSE,MORSE RD & FOSTER ST,40.062158,-83.014094
MORELKE,MORSE RD & ELKS DR,40.062041,-83.011355
MORSHAE,MORSE RD & SHARON AVE,40.061908,-83.008022
MORCOLE,MORSE RD & COLERAIN AVE,40.061703,-83.003226
INDJEFS,INDIANOLA AVE & E JEFFREY PL,40.060441,-83.001082
HIGDELS,S HIGH ST & DELRAY RD,39.91059,-82.995466
INDBEAS,INDIANOLA AVE & E BEAUMONT RD,40.056855,-83.000623
HIGHIGHN,N HIGH ST & HIGHLAND AVE,40.105483,-83.016919
INDSCHS,INDIANOLA AVE & SCHREYER PL,40.051899,-83.000181
INDCOOS,INDIANOLA AVE & E COOKE RD,40.048228,-82.999937
INDGLES,INDIANOLA AVE & GLENMONT AVE,40.044376,-83.000121
INDNORTS,INDIANOLA AVE & NORTHRIDGE RD,40.042163,-83.000314
INDFALS,INDIANOLA AVE & FALLIS RD,40.038657,-83.000608
INDTORS,INDIANOLA AVE & E TORRENCE RD,40.036485,-83.000755
INDOAKS,INDIANOLA AVE & OAKLAND PARK AVE,40.033176,-83.000973
INDNORS,INDIANOLA AVE & E NORTH BROADWAY,40.03106,-83.001152
INDWALS,INDIANOLA AVE & WALHALLA RD,40.028941,-83.001328
INDMELS,INDIANOLA AVE & MELROSE AVE,40.025432,-83.001615
INDARCS,INDIANOLA AVE & E ARCADIA AVE,40.017091,-83.002193
HUDSUME,E HUDSON ST & SUMMIT ST,40.015099,-83.000871
SUMMAYS,SUMMIT ST & E MAYNARD AVE,40.010888,-83.000494
SUMALDS,SUMMIT ST & ALDEN AVE,40.007846,-83.000721
SUMLANS,SUMMIT ST & E LANE AVE,40.005454,-83.000882
SUM18TS,SUMMIT ST & E 18TH AVE,40.001741,-83.001135
SUM15TS,SUMMIT ST & E 15TH AVE,39.999635,-83.001272
SUMCHIS,SUMMIT ST & CHITTENDEN AVE,39.995404,-83.00156
SUM7THS,SUMMIT ST & E 7TH AVE,39.99033,-83.001899
SUM5THS,SUMMIT ST & E 5TH AVE,39.98671,-83.002122
SUM2NDS,SUMMIT ST & E 2ND AVE,39.982279,-83.00125
SUMWARS,SUMMIT ST & WARREN ST,39.979067,-83.000575
CLEPEGN,CLEVELAND AVE & PEGG RD,40.044539,-82.958299
5THDENW,W 5TH AVE & DENNISON AVE,39.987267,-83.00813
5THHIGW,W 5TH AVE & HIGHLAND ST,39.987365,-83.011105
5THNEIW,W 5TH AVE & NEIL AVE,39.987437,-83.012906
5THMICW,W 5TH AVE & MICHIGAN AVE,39.987548,-83.016427
5THPERW,W 5TH AVE & PERRY ST,39.987637,-83.018613
5THTISW,W 5TH AVE & TISDALE,39.987737,-83.021212
5THOLEW,W 5TH AVE & OLENTANGY RIVER RD,39.987945,-83.02646
5THHESW,W 5TH AVE & HESS ST,39.988226,-83.032033
5THKENW,W 5TH AVE & KENNY RD,39.988382,-83.035246
5THDOTW,W 5TH AVE & DOTEN AVE,39.988507,-83.037735
5THNORTW,W 5TH AVE & NORTHWEST BLVD,39.988646,-83.040543
5THGRANW,W 5TH AVE & GRANDVIEW AVE,39.988835,-83.044265
5THFAIW,W 5TH AVE & FAIRVIEW AVE,39.989,-83.047544
5THASHW,W 5TH AVE & ASHLAND AVE,39.989115,-83.050164
5THWESW,W 5TH AVE & WESTWOOD AVE,39.989209,-83.052682
5THWYAW,W 5TH AVE & WYANDOTTE RD,39.989322,-83.055638
5THCAMW,W 5TH AVE & CAMBRIDGE BLVD,39.98941,-83.057964
ARLCHEN,ARLINGTON AVE & W CHELSEA RD,39.991213,-83.060182
ARLCAMN,ARLINGTON AVE & CAMBRIDGE BLVD,39.993055,-83.060319
ARLEDGN,ARLINGTON AVE & EDGEMONT RD,39.996391,-83.060583
ARLMALN,ARLINGTON AVE & N MALLWAY DR,39.999008,-83.061587
ARLTEWN,ARLINGTON AVE & TEWKSBURY RD,40.001204,-83.063641
ARLWICN,ARLINGTON AVE & WICKFORD RD,40.00239,-83.0651
TRELANN,TREMONT RD & W LANE AVE,40.007743,-83.070121
TREWILN,TREMONT RD & WILSHIRE DR,40.009985,-83.069818
TRENORN,TREMONT RD & NORTHAM RD,40.012219,-83.068761
TREFARN,TREMONT RD & FARLEIGH RD,40.014584,-83.066663
TREINCN,TREMONT RD & INCHCLIFF RD,40.017522,-83.064133
TREZOLN,TREMONT RD & ZOLLINGER RD,40.01887,-83.062934
TRELANGN,TREMONT RD & LANGHAM RD,40.020787,-83.061183
RIDTREW,RIDGECLIFF RD & TREMONT RD,40.022538,-83.060265
RIDSOMW,RIDGECLIFF RD & SOMERFORD RD,40.022694,-83.063418
RIDCOLW,RIDGECLIFF RD & COLCHESTER RD,40.022849,-83.066522
RIDREDE,RIDGECLIFF RD & REDDING RD,40.02289,-83.069173
RIDCOLE,RIDGECLIFF RD & COLCHESTER RD,40.022759,-83.066294
RIDSOME,RIDGECLIFF RD & SOMERFORD RD,40.022595,-83.063001
TREZOLS,TREMONT RD & ZOLLINGER RD,40.019014,-83.0629
4THTOWN,S 4TH ST & E TOWN ST,39.958973,-82.995428
TREONAS,TREMONT RD & ONANDAGA DR,40.00959,-83.069997
TRELANS,TREMONT RD & W LANE AVE,40.007581,-83.070226
ARLTRES,ARLINGTON AVE & TREMONT RD,40.005044,-83.069108
ARLWESSW,ARLINGTON AVE & WESTOVER RD,40.002592,-83.066111
ARLTEWS,ARLINGTON AVE & TEWKSBURY RD,40.001287,-83.063842
ARLGUIS,ARLINGTON AVE & GUILFORD RD,39.99994,-83.062624
ARLWALS,ARLINGTON AVE & WALTHAM RD,39.997675,-83.061
ARLCAMS,ARLINGTON AVE & CAMBRIDGE BLVD,39.993486,-83.060491
ARLCHES,ARLINGTON AVE & W CHELSEA RD,39.991432,-83.060346
ARL5THS,ARLINGTON AVE & W 5TH AVE,39.989231,-83.060186
5THCAME,W 5TH AVE & CAMBRIDGE BLVD,39.989314,-83.057926
5THWYAE,W 5TH AVE & WYANDOTTE RD,39.989221,-83.055496
5THWESE,W 5TH AVE & WESTWOOD AVE,39.989112,-83.052857
5THASHE,W 5TH AVE & ASHLAND AVE,39.989011,-83.050358
5THFAIE,W 5TH AVE & FAIRVIEW AVE,39.98888,-83.047631
5THGRANE,W 5TH AVE & GRANDVIEW AVE,39.988741,-83.044634
5THNORTE,W 5TH AVE & NORTHWEST BLVD,39.988566,-83.04114
5THDOTE,W 5TH AVE & DOTEN AVE,39.988411,-83.038096
5THEASE,W 5TH AVE & EASTVIEW AVE,39.9883,-83.03581
5THHOLE,W 5TH AVE & HOLLY AVE,39.988186,-83.033569
5THEDGE,W 5TH AVE & EDGEHILL RD,39.987948,-83.028914
5THOLEE,W 5TH AVE & OLENTANGY RIVER RD,39.987801,-83.025864
5THPERE,W 5TH AVE & PERRY ST,39.987561,-83.019056
5THMICE,W 5TH AVE & MICHIGAN AVE,39.987476,-83.016839
5THHIGE,W 5TH AVE & HIGHLAND ST,39.98725,-83.011103
5THDENE,W 5TH AVE & DENNISON AVE,39.987153,-83.008523
CLEFUJN,CLEVELAND AVE & FUJI DR,40.088781,-82.950665
MARHAME,MARTIN LUTHER KING & HAMILTON AVE,39.968762,-82.981551
MOUGARE,MOUNT VERNON AVE & N GARFIELD AVE,39.970955,-82.979411
MOU18TE,MOUNT VERNON AVE & N 18TH ST,39.971639,-82.975812
MOU20TE,MOUNT VERNON AVE & N 20TH ST,39.972044,-82.973551
MOU22NE,MOUNT VERNON AVE & N 22ND ST,39.972486,-82.971179
MOUCHAE,MOUNT VERNON AVE & N CHAMPION AVE,39.972994,-82.968266
MOUBURE,MOUNT VERNON AVE & BURT ST,39.973829,-82.963424
MOUTAYE,MOUNT VERNON AVE & TAYLOR AVE,39.974166,-82.961356
NELMARGS,N NELSON RD & MARGARET AVE,39.984823,-82.941706
5THLEONE,E 5TH AVE & LEONARD AVE,39.984987,-82.956336
MAIHIGE,E MAIN ST & S HIGH ST,39.956245,-82.998472
MAI4THE,E MAIN ST & S 4TH ST,39.956609,-82.994657
5THCASE,E 5TH AVE & N CASSADY AVE,39.985015,-82.931134
5THALTE,E 5TH AVE & ALTON AVE,39.984885,-82.926497
5THRARE,E 5TH AVE & RARIG AVE,39.984808,-82.92403
CLEOLDS,S CLEVELAND AVE & OLD COACH RD,40.119894,-82.948615
CLE340S1,340 S CLEVELAND AVE,40.116707,-82.948828
7THSTEE,E 7TH AVE & STELZER RD,39.98622,-82.913699
OSB5THS,OSBORN AVE & E 5TH AVE,39.984802,-82.912771
5THKRUW,E 5TH AVE & KRUMM AVE,39.984723,-82.917568
5THSTERW,E 5TH AVE & STERLING AVE,39.9848,-82.92061
5THRARW,E 5TH AVE & RARIG AVE,39.984872,-82.92345
5THALTW,E 5TH AVE & ALTON AVE,39.985008,-82.926679
5THCASW,E 5TH AVE & N CASSADY AVE,39.985168,-82.931295
MOUTAYW,MOUNT VERNON AVE & TAYLOR AVE,39.974224,-82.961594
MOUGRAHW,MOUNT VERNON AVE & GRAHAM ST,39.973811,-82.96405
MOUCHAW,MOUNT VERNON AVE & N CHAMPION AVE,39.973063,-82.968466
MOU22NW,MOUNT VERNON AVE & N 22ND ST,39.972568,-82.971234
MOUMIAW,MOUNT VERNON AVE & MIAMI AVE,39.972024,-82.974453
MOCCENW,MOCK RD & CENTURY DR,40.011426,-82.946647
MARSTCW,MARTIN LUTHER KING & ST CLAIR AVE,39.970842,-82.980551
SPRHAMW,E SPRING ST & HAMILTON AVE,39.9688,-82.982306
CLECOPS,S CLEVELAND AVE & COPELAND MILL RD,40.11264,-82.949147
CLESCHS,S CLEVELAND AVE & SCHROCK RD,40.110874,-82.949279
CLEHOMS,CLEVELAND AVE & HOME ACRE DR,40.098294,-82.950155
NEIHUBN,NEIL AVE & W HUBBARD AVE,39.978292,-83.01119
NEI1STN,NEIL AVE & W 1ST AVE,39.980278,-83.011604
NEI3RDN,NEIL AVE & W 3RD AVE,39.98355,-83.01225
NEI4THN,NEIL AVE & W 4TH AVE,39.985367,-83.012615
NEI5THN,NEIL AVE & W 5TH AVE,39.98716,-83.012959
NEIOPPS,NEIL AVE & W 11TH AVE,39.995308,-83.014715
NEI8THN,NEIL AVE & W 8TH AVE,39.992315,-83.013973
NEI7THS,NEIL AVE & W 7TH AVE,39.989553,-83.013617
NEI5THS,NEIL AVE & W 5TH AVE,39.987521,-83.013213
NEI4THS,NEIL AVE & W 4TH AVE,39.985749,-83.012868
NEI2NDS,NEIL AVE & W 2ND AVE,39.982199,-83.012174
NEIWILS,NEIL AVE & WILBER AVE,39.979517,-83.011644
KIMMERE,KIMBERLY PKWY N & MERCEDES LN,39.926107,-82.886452
11TINDE,E 11TH AVE & INDIANOLA AVE,39.994524,-83.002614
11T4THE,E 11TH AVE & N 4TH ST,39.994369,-82.999378
11TESSE,E 11TH AVE & ESSEX AVE,39.993875,-82.987243
HAM17TN,HAMILTON AVE & E 17TH AVE,40.000858,-82.979849
HAMDUXN,HAMILTON AVE & DUXBERRY AVE,40.009025,-82.979308
HAMCLIN,HAMILTON AVE & CLINTON ST,40.011975,-82.979106
MCGHUDN,MCGUFFEY RD & E HUDSON ST,40.014765,-82.981373
MCGBRIN,MCGUFFEY RD & BRIARWOOD AVE,40.016961,-82.981378
MCGOPPN,MCGUFFEY RD & GENESSEE AVE,40.019499,-82.981438
MCGABEN,MCGUFFEY RD & ABERDEEN AVE,40.021286,-82.981474
MCGWEBN,MCGUFFEY RD & E WEBER RD,40.023274,-82.981392
MCGDELN,MCGUFFEY RD & DELNO AVE,40.025763,-82.981144
MCGWELN,MCGUFFEY RD & WELDON AVE,40.027556,-82.980963
MCGNORN,MCGUFFEY RD & E NORTH BROADWAY,40.030122,-82.980698
MCGOAKN,MCGUFFEY RD & OAKLAND PARK AVE,40.031606,-82.980545
OAKATWW,OAKLAND PARK AVE & ATWOOD TERRACE,40.032323,-82.983821
OAKHIAW,OAKLAND PARK AVE & HIAWATHA ST,40.032441,-82.98605
OAKMAIW,OAKLAND PARK AVE & MAIZE RD,40.032568,-82.989142
MAIURAN,MAIZE RD & URANA AVE,40.035596,-82.989262
MAINORTN,MAIZE RD & NORTHRIDGE RD,40.041603,-82.988754
OAKKARW,OAKLAND PARK AVE & KARL RD,40.032031,-82.977934
KARHUYN,KARL RD & HUY RD,40.035553,-82.977851
KARPAUN,KARL RD & PAULINE AVE,40.03776,-82.977668
KARACTN,KARL RD & ACTON RD,40.039683,-82.977487
GEODELN,GEORGESVILLE RD & INDUSTRIAL MILE,39.944885,-83.11136
5THARLE,W 5TH AVE & ARLINGTON AVE,39.989416,-83.060659
MAINORN,MAIZE RD & NORRIS DR,40.044445,-82.988551
MAICOON,MAIZE RD & E COOKE RD,40.047422,-82.988297
MAIHILN,MAIZE RD & HILLSDALE DR,40.050869,-82.988035
MAIGARN,MAIZE RD & GARDEN RD,40.054621,-82.987734
MAISHAN,MAIZE RD & SHANLEY DR,40.056703,-82.987551
MAIMORS,MAIZE RD & MORSE RD,40.059919,-82.987459
KARNORN,KARL RD & NORTHLAND PARK AVE,40.057752,-82.976375
MAIGARS,MAIZE RD & GARDEN RD,40.054528,-82.987908
MAICARBS,MAIZE RD & CARBONE DR,40.051938,-82.988084
MAICOOS,MAIZE RD & E COOKE RD,40.047925,-82.988417
MAINORS,MAIZE RD & NORRIS DR,40.044499,-82.988686
MAIZEBS,MAIZE RD & ZEBULON AVE,40.038838,-82.989135
MAIURAS,MAIZE RD & URANA AVE,40.035212,-82.989428
MAIDUNS,MAIZE RD & DUNEDIN,40.0333,-82.989586
OAKOSCE,OAKLAND PARK AVE & OSCEOLA DR,40.0324,-82.987982
OAKATWE,OAKLAND PARK AVE & ATWOOD TERRACE,40.032227,-82.984206
MOUHIGW1,E MOUND ST & S HIGH ST,39.954932,-82.99871
KARACTS,KARL RD & ACTON RD,40.039345,-82.977661
KARCARS,KARL RD & CAROLYN AVE,40.037045,-82.977859
KARURAS,KARL RD & URANA AVE,40.03468,-82.978056
KAROAKS,KARL RD & OAKLAND PARK AVE,40.032382,-82.97825
MCGOAKS,MCGUFFEY RD & OAKLAND PARK AVE,40.031479,-82.980703
MCGNORS,MCGUFFEY RD & E NORTH BROADWAY,40.030041,-82.980835
MCGWELS,MCGUFFEY RD & WELDON AVE,40.027801,-82.981064
MCGCOMS,MCGUFFEY RD & E COMO AVE,40.025701,-82.981291
MCGWEBS,MCGUFFEY RD & E WEBER RD,40.023662,-82.981499
MCGABES,MCGUFFEY RD & ABERDEEN AVE,40.021554,-82.981608
MCGGENS,MCGUFFEY RD & GENESSEE AVE,40.019182,-82.98159
MCGBRIS,MCGUFFEY RD & BRIARWOOD AVE,40.01696,-82.981591
MCGCLIS,MCGUFFEY RD & CLINTON ST,40.012324,-82.981593
HAMDUXS,HAMILTON AVE & DUXBERRY AVE,40.008877,-82.979448
HAM21SS,HAMILTON AVE & E 21ST AVE,40.004048,-82.979763
STAHIAN,S STATE ST & HIAWATHA AVE,40.1179,-82.928538
11TESSW,E 11TH AVE & ESSEX AVE,39.994007,-82.987683
KAROAKN,KARL RD & OAKLAND PARK AVE,40.032305,-82.97813
11TGRAW,E 11TH AVE & N GRANT AVE,39.994324,-82.995525
CLELEHS,CLEVELAND AVE & LEHNER RD,40.052279,-82.953688
CLEORMS,CLEVELAND AVE & ORMOND AVE,40.046914,-82.956311
BRELEON,BRENTNELL AVE & LEONARD AVE,39.988181,-82.950104
BREWOON,BRENTNELL AVE & WOODWARD AVE,39.991938,-82.949824
BRE1257N,1257 BRENTNELL AVE,39.993947,-82.949665
BRELISN,BRENTNELL AVE & LISA DR,39.996483,-82.949456
BREHOLN,BRENTNELL AVE & HOLT AVE,39.999967,-82.949173
BREARGN,BRENTNELL AVE & ARGYLE DR,40.004023,-82.948681
BREMIDN,BRENTNELL AVE & MIDDLEHURST DR,40.006189,-82.948205
CAS10TS,N CASSADY AVE & E 10TH AVE,39.989626,-82.930662
BREDAWN,BRENTNELL AVE & DAWNLIGHT AVE,40.012122,-82.947678
BREMARN,BRENTNELL AVE & MARCIA DR,40.014678,-82.947925
MYRBREW,MYRTLE AVE & BRENTNELL AVE,40.016387,-82.948213
AGLPENW,AGLER RD & PENDLETON PL,40.021088,-82.926409
HUDDELW,E HUDSON ST & DELBERT RD,40.013375,-82.959123
MAIBRIW,E MAIN ST & BRIARCLIFF RD,39.955191,-82.810941
LIVQUAW,E LIVINGSTON AVE & QUARRY RIDGE DR,39.94309,-82.840758
BREMYRS,BRENTNELL AVE & MYRTLE AVE,40.016027,-82.947893
BREMARS,BRENTNELL AVE & MARCIA DR,40.014159,-82.948257
BREMOCS,BRENTNELL AVE & MOCK RD,40.012089,-82.947786
BREDELS,BRENTNELL AVE & DELAVAN DR,40.009921,-82.948037
BREMIDS,BRENTNELL AVE & MIDDLEHURST DR,40.006493,-82.948324
BREARGS,BRENTNELL AVE & ARGYLE DR,40.004002,-82.948864
BREHOLS,BRENTNELL AVE & HOLT AVE,40.00024,-82.949334
BREORIS,BRENTNELL AVE & ORIOLE PL,39.99766,-82.949488
BRE125S,1257 BRENTNELL AVE,39.994016,-82.949812
BREWOOS,BRENTNELL AVE & WOODWARD AVE,39.992036,-82.949948
BRELEOS,BRENTNELL AVE & LEONARD AVE,39.988061,-82.95025
LIV4THE,E LIVINGSTON AVE & S 4TH ST,39.952628,-82.994158
LIV6THE,E LIVINGSTON AVE & S 6TH ST,39.952464,-82.990578
LIVGRANE,E LIVINGSTON AVE & S GRANT AVE,39.95238,-82.988663
LIVKELW,E LIVINGSTON AVE & KELTON AVE,39.949246,-82.959852
LIVPARE,E LIVINGSTON AVE & PARSONS AVE,39.95211,-82.98277
LIVANNE,E LIVINGSTON AVE & ANN ST,39.951533,-82.980465
LIV18TE,E LIVINGSTON AVE & S 18TH ST,39.950876,-82.978123
LIVCARE,E LIVINGSTON AVE & CARPENTER ST,39.949987,-82.97577
LIV22NE,E LIVINGSTON AVE & S 22ND ST,39.949746,-82.972636
LIVCHAE,E LIVINGSTON AVE & S CHAMPION AVE,39.949637,-82.970376
LIVWILE,E LIVINGSTON AVE & WILSON AVE,39.949499,-82.967531
LIVSTUE,E LIVINGSTON AVE & STUDER AVE,39.949341,-82.964215
LIVKELE,E LIVINGSTON AVE & KELTON AVE,39.949081,-82.958999
CLEMAINN,S CLEVELAND AVE & W MAIN ST,40.123546,-82.948111
LIVBULE,E LIVINGSTON AVE & BULEN AVE,39.948717,-82.951593
LIVRHOE,E LIVINGSTON AVE & RHOADS AVE,39.948615,-82.94953
LIVMEME,E LIVINGSTON AVE & MEMORY LN N,39.948469,-82.946794
LIVCOLE,E LIVINGSTON AVE & COLLEGE AVE,39.947926,-82.936419
LIVCASE,E LIVINGSTON AVE & S CASSINGHAM RD,39.94776,-82.93288
LIVROOE,E LIVINGSTON AVE & S ROOSEVELT AVE,39.94752,-82.928506
LIVBROE1,E LIVINGSTON AVE & BROWNING AVE,39.947193,-82.922477
LIVWELE,E LIVINGSTON AVE & WELLESLEY RD,39.947053,-82.919713
LIVKELE1,E LIVINGSTON AVE & S KELLNER RD,39.946922,-82.917413
LIVJAME,E LIVINGSTON AVE & S JAMES RD,39.946781,-82.914972
LIVZETE,E LIVINGSTON AVE & ZETTLER RD,39.946517,-82.910144
LIVBARE,E LIVINGSTON AVE & BARNETT RD,39.946312,-82.906059
LIVCUNE,E LIVINGSTON AVE & CUNARD RD,39.94606,-82.901894
LIVCOUE,E LIVINGSTON AVE & COURTRIGHT RD,39.945771,-82.896418
LIVBEEE,E LIVINGSTON AVE & BEECHWOOD RD,39.945653,-82.894211
LIVVILE,E LIVINGSTON AVE & VILARDO LN,39.945503,-82.89169
LIVYEAE,E LIVINGSTON AVE & S YEARLING RD,39.94529,-82.887862
LIVBURE,E LIVINGSTON AVE & BURLINGTON AVE,39.945022,-82.883296
LIVGRAE,E LIVINGSTON AVE & GRATTAN RD,39.944832,-82.879774
LIVHAME,E LIVINGSTON AVE & S HAMILTON RD,39.944647,-82.876709
LIVSIME,E LIVINGSTON AVE & SIMPSON DR,39.944448,-82.873164
LIVSHAE,E LIVINGSTON AVE & SHADY LANE RD,39.944362,-82.871636
MAISHAE,E MAIN ST & SHADY LANE RD,39.955218,-82.870853
MAICOUE,E MAIN ST & COUNTRY CLUB RD,39.955121,-82.867501
LIVCOUNW,E LIVINGSTON AVE & COUNTRY CLUB RD,39.944344,-82.868668
LIVSHAW,E LIVINGSTON AVE & SHADY LANE RD,39.944474,-82.871041
LIVHAMW,E LIVINGSTON AVE & S HAMILTON RD,39.944898,-82.878506
LIVWESW,E LIVINGSTON AVE & WESTPHAL AVE,39.945181,-82.883452
LIVYEAW,E LIVINGSTON AVE & S YEARLING RD,39.945396,-82.887141
LIVELDW,E LIVINGSTON AVE & ELDERWOOD AVE,39.94565,-82.891513
LIVBEEW,E LIVINGSTON AVE & BEECHWOOD RD,39.94583,-82.894819
LIVCOURW,E LIVINGSTON AVE & COURTRIGHT RD,39.945984,-82.897582
LIVRANW,E LIVINGSTON AVE & RAND AVE,39.946214,-82.901942
LIVBARW,E LIVINGSTON AVE & BARNETT RD,39.946455,-82.906055
LIVHAMW1,E LIVINGSTON AVE & S HAMPTON RD,39.946755,-82.911858
LIVJAMW,E LIVINGSTON AVE & S JAMES RD,39.946932,-82.915257
LIVKENW,E LIVINGSTON AVE & KENILWORTH PL,39.947098,-82.918575
LIVVERW,E LIVINGSTON AVE & VERNON RD,39.947688,-82.929326
LIVMONW,E LIVINGSTON AVE & MONTROSE AVE,39.947838,-82.932096
FIS1247W,1247 FISHINGER RD,40.023663,-83.045965
LIVCOLW,E LIVINGSTON AVE & COLLEGE AVE,39.948101,-82.936901
KIMBURE,KIMBERLY PKWY N & BURGANDY LN,39.922975,-82.893296
LIVMAYW,E LIVINGSTON AVE & MAYFIELD PL,39.948295,-82.941002
LIVRHOW,E LIVINGSTON AVE & RHOADS AVE,39.948691,-82.948918
LIVFAIW,E LIVINGSTON AVE & FAIRWOOD AVE,39.948928,-82.953394
LIVLILW,E LIVINGSTON AVE & LILLEY AVE,39.949148,-82.957908
LIVLOCW,E LIVINGSTON AVE & LOCKBOURNE RD,39.949392,-82.962846
LIVWILW,E LIVINGSTON AVE & WILSON AVE,39.949613,-82.967516
LIVCHAW,E LIVINGSTON AVE & S CHAMPION AVE,39.949748,-82.970345
LIVOHIW,E LIVINGSTON AVE & S OHIO AVE,39.949822,-82.971857
LIVANNW,E LIVINGSTON AVE & ANN ST,39.951749,-82.980546
LIVPARW,E LIVINGSTON AVE & PARSONS AVE,39.95232,-82.983164
LIVGRANW,E LIVINGSTON AVE & S GRANT AVE,39.952509,-82.988757
LIVMOHW,E LIVINGSTON AVE & MOHAWK ST,39.952709,-82.99312
FUL3RDW,E FULTON ST & S 3RD ST,39.953864,-82.996165
FULHIGW,E FULTON ST & S HIGH ST,39.953592,-82.998468
MAIHENNW,MAIN ST & HENDRON RD,39.854365,-82.896041
BRYRHOW,BRYDEN RD & RHOADS AVE,39.960125,-82.949884
BRYFAIW,BRYDEN RD & FAIRWOOD AVE,39.960189,-82.952495
TOWWASW,E TOWN ST & S WASHINGTON AVE,39.9604,-82.986756
TOWGRAE,E TOWN ST & S GRANT AVE,39.959899,-82.989878
TOWWASE,E TOWN ST & S WASHINGTON AVE,39.960286,-82.986557
TOWLESE,E TOWN ST & LESTER DR,39.96061,-82.983604
BRYPARE,BRYDEN RD & PARSONS AVE,39.960597,-82.981402
BRYMONE,BRYDEN RD & S MONROE AVE,39.96055,-82.978672
BRY18TE,BRYDEN RD & S 18TH ST,39.960503,-82.975626
BRYCHAE,BRYDEN RD & S CHAMPION AVE,39.960389,-82.968982
BRYWILE,BRYDEN RD & WILSON AVE,39.960347,-82.966618
BRYOPPE,BRYDEN RD & KENDALL PL,39.960287,-82.962925
BRYMILE,BRYDEN RD & MILLER AVE,39.960242,-82.960229
BRYKELE,BRYDEN RD & KELTON AVE,39.960211,-82.957794
BRYMORE,BRYDEN RD & MORRISON AVE,39.960142,-82.955148
BRYFAIE,BRYDEN RD & FAIRWOOD AVE,39.96009,-82.952904
BRYMORW,BRYDEN RD & MORRISON AVE,39.960251,-82.954738
BRYKELW,BRYDEN RD & KELTON AVE,39.960316,-82.958289
BRYMILW,BRYDEN RD & MILLER AVE,39.960349,-82.960281
BRYALTW,BRYDEN RD & LOEFFLER AVE,39.960403,-82.963271
BRYWILW,BRYDEN RD & WILSON AVE,39.960463,-82.966225
BRYCHAW,BRYDEN RD & S CHAMPION AVE,39.960494,-82.969013
BRYOHIW,BRYDEN RD & S OHIO AVE,39.960537,-82.970891
BRYMONW,BRYDEN RD & S MONROE AVE,39.960677,-82.978813
BRYPARW,BRYDEN RD & PARSONS AVE,39.960724,-82.981644
TOWLESW,E TOWN ST & LESTER DR,39.960763,-82.983454
HANBRUE,HANFORD ST & BRUCK ST,39.936452,-82.988484
FREPARE,FREBIS AVE & PARSONS AVE,39.935431,-82.983818
FREANNE,FREBIS AVE & ANN ST,39.935337,-82.981334
FRE18TE,FREBIS AVE & S 18TH ST,39.935206,-82.978535
FRESTUE,FREBIS AVE & STUDER AVE,39.934572,-82.965231
LOCSHES,LOCKBOURNE RD & SHELDON AVE,39.932993,-82.964624
LOCMARS,LOCKBOURNE RD & E MARKISON AVE,39.930504,-82.96483
LOCSMIS,LOCKBOURNE RD & SMITH RD,39.92734,-82.96508
LOCREES,LOCKBOURNE RD & REEB AVE,39.924354,-82.965354
LOC234S,2341 LOCKBOURNE RD,39.916746,-82.965949
KOEACRE,1130 KOEBEL RD,39.912571,-82.965484
KOEEDSLE,KOEBEL & EDSEL AVE,39.912313,-82.960481
KOEFAIE,KOEBEL RD & FAIRWOOD AVE,39.912145,-82.957117
FAIFABS,FAIRWOOD AVE & FABER AVE,39.908924,-82.957155
FAIWATS,FAIRWOOD AVE & WATKINS RD,39.904988,-82.957444
CAM132N,1320 CAMBRIDGE BLVD,39.983638,-83.057999
NAG6THE,E NAGHTEN ST & N 6TH ST,39.968627,-82.993035
FAIWATN,FAIRWOOD AVE & WATKINS RD,39.904649,-82.957347
FAIFABN,FAIRWOOD AVE & FABER AVE,39.908535,-82.957028
KOEFAIW,KOEBEL RD & FAIRWOOD AVE,39.912235,-82.957165
SAICLEN,ST ANNS W SVC RD & ST ANNS #1 ENT,40.113474,-82.947501
LOCMARN,LOCKBOURNE RD & MARION RD,39.923086,-82.96524
LOCINNN,LOCKBOURNE RD & E INNIS AVE,39.925153,-82.965124
LOCSMIN,LOCKBOURNE RD & SMITH RD,39.927354,-82.964936
LOCMOLN,LOCKBOURNE RD & MOLER RD,39.93251,-82.964527
FRESTUW,FREBIS AVE & STUDER AVE,39.934698,-82.965863
FREOAKW,FREBIS AVE & OAKWOOD AVE,39.934883,-82.969789
FREOHIW,FREBIS AVE & S OHIO AVE,39.935034,-82.972775
FREGILW,FREBIS AVE & GILBERT ST,39.935152,-82.975271
FRE18TW,FREBIS AVE & S 18TH ST,39.935306,-82.978521
FREANNW,FREBIS AVE & ANN ST,39.935443,-82.981373
FREPARW,FREBIS AVE & PARSONS AVE,39.935536,-82.983382
HANBRUW,HANFORD ST & BRUCK ST,39.936558,-82.988284
KIMCOUE,KIMBERLY PKWY N & COURTRIGHT RD,39.921481,-82.89636
LONTALE,E LONG ST & TALMADGE AVE,39.967372,-82.979447
LON17TE,E LONG ST & N 17TH ST,39.967731,-82.976765
LON20TE,E LONG ST & N 20TH ST,39.968025,-82.97379
LONOHIE,E LONG ST & N OHIO AVE,39.968428,-82.970117
LONCHAE,E LONG ST & GOVERNOR PL,39.968601,-82.968591
LONWINE,E LONG ST & WINNER AVE,39.96888,-82.966175
GRESHEW,GREENWAY AVE S & SHERBOURNE DR,39.971629,-82.95006
GREGREW,GREENWAY AVE & GREENWAY AVE S,39.973629,-82.952466
LONWINW,E LONG ST & WINNER AVE,39.968993,-82.966308
LON20TW,E LONG ST & N 20TH ST,39.968198,-82.973344
LON18TW,E LONG ST & N 18TH ST,39.967928,-82.975719
LONMONW,E LONG ST & N MONROE AVE,39.967571,-82.978851
MAISTAE,W MAIN ST & N STATE ST,40.126678,-82.931892
HIGBLENS,S HIGH ST & W BLENKNER ST,39.951772,-82.998746
HIGSYCS,S HIGH ST & W SYCAMORE ST,39.948724,-82.998147
HIGFRANS,S HIGH ST & W FRANKFORT ST,39.947241,-82.997858
HIGWHIS,S HIGH ST & W WHITTIER ST,39.944223,-82.997267
HIGSTES,S HIGH ST & STEWART AVE,39.942096,-82.996857
HIGGRES,S HIGH ST & GREENLAWN AVE,39.93921,-82.9963
HANHIGE,HANFORD ST & S HIGH ST,39.936768,-82.995622
4THJENS,S 4TH ST & E JENKINS AVE,39.933129,-82.992823
4THMARS,S 4TH ST & E MARKISON AVE,39.931147,-82.992965
4THWOOS,S 4TH ST & E WOODROW AVE,39.927723,-82.993238
4THREES,S 4TH ST & REEB AVE,39.924943,-82.993457
HIG210S,2101 S HIGH ST,39.91941,-82.995505
HIGDERS,S HIGH ST & DERING AVE,39.913379,-82.995494
HIGCASS,S HIGH ST & W CASTLE RD,39.907428,-82.99547
HIGALCS,S HIGH ST & W ALCOTT RD,39.905666,-82.995471
HIGSOUGS,S HIGH ST & SOUTHGATE DR,39.901091,-82.995468
HIGRUMS,S HIGH ST & RUMSEY RD,39.894288,-82.995632
HIGWILS,S HIGH ST & WILLIAMS RD,39.892059,-82.996579
HIG365N,3650 S HIGH ST,39.886945,-82.998628
HIGWILN1,S HIGH ST & WILLIAMS RD,39.892144,-82.996298
HIGRUMN,S HIGH ST & RUMSEY RD,39.894545,-82.99532
HIGSOUGN,S HIGH ST & SOUTHGATE DR,39.901521,-82.995214
HIGSCHVN,S HIGH ST & SCHRYVER RD,39.903941,-82.995231
HIGALCN,S HIGH ST & E ALCOTT RD,39.905892,-82.995237
HIGCASN,S HIGH ST & E CASTLE RD,39.907473,-82.99525
HIGDELN,S HIGH ST & DELRAY RD,39.910792,-82.99525
HIG205N,2050 S HIGH ST,39.919658,-82.995279
HOSHIGE,HOSACK ST & S HIGH ST,39.922754,-82.994753
4THINNN,S 4TH ST & E INNIS AVE,39.926067,-82.993243
4THWELN,S 4TH ST & E WELCH AVE,39.930244,-82.992904
4THSOUN,S 4TH ST & SOUTHWOOD AVE,39.932194,-82.992753
HANHIGW,HANFORD ST & S HIGH ST,39.936863,-82.995732
HIGMITN,S HIGH ST & E MITHOFF ST,39.938505,-82.996029
HIGWHIN,S HIGH ST & E WHITTIER ST,39.944217,-82.997042
HIGCOLN,S HIGH ST & E COLUMBUS ST,39.946055,-82.997395
HIGSYCN,S HIGH ST & E SYCAMORE ST,39.948721,-82.997922
MAIGRANE,E MAIN ST & S GRANT AVE,39.957245,-82.989172
MAIWASE,E MAIN ST & S WASHINGTON AVE,39.957588,-82.986156
MAIALLE,E MAIN ST & ALLEN AVE,39.957971,-82.979578
MAIGILE,E MAIN ST & GILBERT ST,39.957845,-82.973671
MAIOHIE,E MAIN ST & S OHIO AVE,39.957794,-82.970993
MAICHAE,E MAIN ST & S CHAMPION AVE,39.957753,-82.969033
MAIKIME,E MAIN ST & KIMBALL PL,39.957657,-82.96379
MAIMILLE,E MAIN ST & MILLER AVE,39.957619,-82.960893
MAIKELTE,E MAIN ST & KELTON AVE,39.957587,-82.958854
MAISEYE,E MAIN ST & SEYMOUR AVE,39.957468,-82.954631
MAIBULE,E MAIN ST & BULEN AVE,39.957399,-82.951334
MAIRHOE,E MAIN ST & RHOADS AVE,39.95736,-82.948969
MAIPARE,E MAIN ST & S PARKVIEW AVE,39.957207,-82.941985
MAIDREE,E MAIN ST & S DREXEL AVE,39.957103,-82.937835
MAIEUCE,E MAIN ST & EUCLAIRE AVE,39.95699,-82.933552
MAIMONE,E MAIN ST & MONTROSE AVE,39.956922,-82.930727
MAIROOE,E MAIN ST & S ROOSEVELT AVE,39.956836,-82.927526
MAIBROE,E MAIN ST & S BROADLEIGH RD,39.956718,-82.922844
EASOFFE,EASTGREEN BLVD & OFFICEVIEW PL,39.938296,-82.829369
MAIBROE1,E MAIN ST & BROOKSIDE DR,39.956578,-82.917553
MAIJAME,E MAIN ST & S JAMES RD,39.956515,-82.915038
MAIWEYE,E MAIN ST & S WEYANT AVE,39.956327,-82.908654
MAIBARE,E MAIN ST & BARNETT RD,39.956227,-82.905572
MAIMAPE,E MAIN ST & MAPLEWOOD AVE,39.956158,-82.903244
MAICOLWE,E MAIN ST & COLLINGWOOD AVE,39.956092,-82.900998
MAIKARE,E MAIN ST & KARL ST,39.955762,-82.889033
MAIYEAE,E MAIN ST & S YEARLING RD,39.955679,-82.886672
MAIWESE1,E MAIN ST & WESTPHAL AVE,39.955562,-82.882524
MAIBERE,E MAIN ST & BERNHARD RD,39.955496,-82.880056
MAIHAME,E MAIN ST & S HAMILTON RD,39.955398,-82.877192
MAIMANE,E MAIN ST & MANFELD DR,39.954942,-82.861671
MAIMANW,E MAIN ST & MANFELD DR,39.955105,-82.861952
MAIHAMW,E MAIN ST & S HAMILTON RD,39.955541,-82.876401
MAIBERW,E MAIN ST & BERNHARD RD,39.955657,-82.879891
MAIWESW,E MAIN ST & WESTPHAL AVE,39.955706,-82.882081
MAIYEAW,E MAIN ST & S YEARLING RD,39.955832,-82.886131
MAIKARW,E MAIN ST & KARL ST,39.955909,-82.889028
MAIROBW,E MAIN ST & ROBINWOOD AVE,39.95611,-82.896314
MAICOLWW,E MAIN ST & COLLINGWOOD AVE,39.956238,-82.90038
MAIMAPW,E MAIN ST & MAPLEWOOD AVE,39.956324,-82.90347
MAIRUBW,E MAIN ST & RUBY AVE,39.9564,-82.906072
MAIWEYW,E MAIN ST & S WEYANT AVE,39.956474,-82.908408
MAIJAMW,E MAIN ST & S JAMES RD,39.956644,-82.914429
MAIEASW,E MAIN ST & EASTMOOR BLVD,39.95676,-82.918595
MAICHEW,E MAIN ST & S CHESTERFIELD RD,39.956827,-82.920937
MAIKENW,E MAIN ST & KENWICK RD,39.956885,-82.923679
MAIROOW,E MAIN ST & S ROOSEVELT AVE,39.956979,-82.927248
MAIREMW,E MAIN ST & S REMINGTON RD,39.957052,-82.930138
MAICASW1,E MAIN ST & S CASSADY AVE,39.957147,-82.933815
MAIDREW,E MAIN ST & S DREXEL AVE,39.957246,-82.937909
MAIPARKW,E MAIN ST & S PARKVIEW AVE,39.957391,-82.942165
MAIRHOW,E MAIN ST & RHOADS AVE,39.957502,-82.94909
MAIFAIW,E MAIN ST & FAIRWOOD AVE,39.957576,-82.952676
MAIKELTW,E MAIN ST & KELTON AVE,39.9577,-82.958442
MAIMILLW,E MAIN ST & MILLER AVE,39.957744,-82.960549
MAIKENW1,E MAIN ST & KENDALL PL,39.95781,-82.964219
MAIWILW,E MAIN ST & WILSON AVE,39.957856,-82.966461
MAICHAW,E MAIN ST & S CHAMPION AVE,39.957904,-82.969296
MAIOHIW,E MAIN ST & S OHIO AVE,39.957929,-82.970702
MAICARW,E MAIN ST & CARPENTER ST,39.95801,-82.974384
MAIMONW,E MAIN ST & S MONROE AVE,39.958121,-82.978564
MAIPARSW,E MAIN ST & PARSONS AVE,39.958164,-82.981517
MAIWASW,E MAIN ST & S WASHINGTON AVE,39.957814,-82.985667
RICGRAW,E RICH ST & S GRANT AVE,39.958512,-82.991372
LINLINN,LINWORTH RD & STATE ROUTE 161,40.091384,-83.049673
LINLOCN,LINWORTH RD & LOCH NESS AVE,40.099389,-83.047494
TOWDAVW,W TOWN ST & S DAVIS AVE,39.956213,-83.021285
SOUSULS,S SOUDER AVE & SULLIVANT AVE,39.952862,-83.021673
SOUMOUS,S SOUDER AVE & THOMAS AVE,39.950792,-83.021217
MOUMOUW,W MOUND ST & MOUNT CALVARY AVE,39.949352,-83.022923
MOUPRIW,W MOUND ST & S PRINCETON AVE,39.946653,-83.032798
MOUCENWF,W MOUND ST & CENTRAL POINT,39.945336,-83.037631
MOURYAW,W MOUND ST & RYAN AVE,39.944557,-83.040436
MOUTOWW,W MOUND ST & TOWNSEND AVE,39.94359,-83.044044
MOUWOOW,W MOUND ST & WOODBURY AVE,39.94297,-83.046372
MOUHILW,W MOUND ST & HILLTONIA AVE,39.941948,-83.050245
MOUBELW,W MOUND ST & BELVIDERE AVE,39.941361,-83.052408
MOUHIGW2,W MOUND ST & S HIGHLAND AVE,39.939676,-83.05867
MOUWARW,W MOUND ST & S WARREN AVE,39.939822,-83.070922
MOURACE,W MOUND ST & RACINE AVE,39.939739,-83.071253
MOURICE,W MOUND ST & S RICHARDSON AVE,39.939086,-83.066736
MOUWAYE,W MOUND ST & S WAYNE AVE,39.938401,-83.062789
MOUHIGE,W MOUND ST & S HIGHLAND AVE,39.939598,-83.058527
MOUCLAE,W MOUND ST & CLARENDON AVE,39.9402,-83.056159
MOUBUTE,W MOUND ST & BUTLER AVE,39.940875,-83.053769
MOUWREE,W MOUND ST & WREXHAM AVE,39.941529,-83.051295
MOUCLAE1,W MOUND ST & CLARK AVE,39.942554,-83.047538
MOULARE,W MOUND ST & LARCOMB AVE,39.943076,-83.045511
MOUEDWE,W MOUND ST & EDWIN ST,39.943726,-83.043041
MOURYAE,W MOUND ST & RYAN AVE,39.944354,-83.040742
MOUCENE,W MOUND ST & CENTRAL POINT,39.945194,-83.037504
MOUGLENE,W MOUND ST & GLENWOOD AVE,39.947672,-83.02852
MOUMOUE,W MOUND ST & MOUNT CALVARY AVE,39.949388,-83.022234
SOUMOUN,S SOUDER AVE & W MOUND ST,39.949946,-83.020939
DAVCAMN,S DAVIS AVE & CAMPBELL AVE,39.951655,-83.019992
DAVSULN,S DAVIS AVE & SULLIVANT AVE,39.95372,-83.020362
RICGREE,W RICH ST & S GREEN ST,39.955138,-83.019531
RICGRUE,W RICH ST & S GRUBB ST,39.955429,-83.016835
RICMCDE,W RICH ST & MCDOWELL ST,39.955916,-83.012863
RICSTAE,W RICH ST & STARLING ST,39.956375,-83.008919
BROHOFE,E BROAD ST & HOFFMAN AVE,39.965204,-82.973972
BROOHIE,E BROAD ST & S OHIO AVE,39.96562,-82.970432
BROCHAE,E BROAD ST & S CHAMPION AVE,39.965855,-82.968457
BROWILAE,E BROAD ST & WILSON AVE,39.966161,-82.965697
BROLATE,E BROAD ST & LATTA AVE,39.966473,-82.962886
BROFRA1E,E BROAD ST & FRANKLIN PK W,39.966775,-82.960149
BROWOOE,E BROAD ST & WOODLAND AVE,39.967032,-82.957875
BRONELE,E BROAD ST & S NELSON RD,39.968,-82.949106
BROPARE,E BROAD ST & PARK DR,39.968475,-82.945113
BROPARKE,E BROAD ST & S PARKVIEW AVE,39.96893,-82.941003
BRODREE,E BROAD ST & S DREXEL AVE,39.969463,-82.93624
BROCASAE,E BROAD ST & S CASSADY AVE,39.969901,-82.932366
BROSTANE,E BROAD ST & S STANWOOD RD,39.970434,-82.927277
BROMERE,E BROAD ST & S MERKLE RD,39.970753,-82.924195
BROBRODE,E BROAD ST & S BROADLEIGH RD,39.970977,-82.922226
BROHARDE,E BROAD ST & S HARDING RD,39.971319,-82.919001
BROJAME,E BROAD ST & S JAMES RD,39.972025,-82.912556
BRONAPE,E BROAD ST & S NAPOLEON AVE,39.972739,-82.905973
MAIFOUNE,E MAIN ST & FOUNTAIN LN,39.954873,-82.859638
BRO367E,3675 E BROAD ST,39.972963,-82.903913
STYAGLS,N STYGLER RD & AGLER RD,40.020264,-82.890587
BROROBE,E BROAD ST & ROBINWOOD AVE,39.973759,-82.89616
BROBEETE,E BROAD ST & BEECHTREE RD,39.973919,-82.894701
BROBEEWE,E BROAD ST & BEECHWOOD RD,39.974225,-82.891737
BRO4251E,4251 E BROAD ST,39.974602,-82.888173
BROYEAE,E BROAD ST & S YEARLING RD,39.974898,-82.885105
BROSANE,E BROAD ST & SANTA MARIA LN,39.97531,-82.881256
BROFAIE,E BROAD ST & FAIRWAY BLVD,39.975709,-82.877493
BROHAMIE,E BROAD ST & S HAMILTON RD,39.976149,-82.873435
BROMTCS,E BROAD ST & MT CARMEL HOSPITAL,39.97854,-82.845875
BROMIDCW,E BROAD ST & MIDCLIFF DR,39.976363,-82.872891
BROHAMW,E BROAD ST & N HAMILTON RD,39.976022,-82.87601
BROFAIW,E BROAD ST & FAIRWAY BLVD,39.975829,-82.877748
BROYEAW,E BROAD ST & N YEARLING RD,39.975003,-82.885697
BROBEEWW,E BROAD ST & BEECHWOOD RD,39.974418,-82.891418
BROBEETW,E BROAD ST & BEECHTREE RD,39.974148,-82.89389
BROROBW,E BROAD ST & ROBINWOOD AVE,39.973864,-82.896721
BROMAPW,E BROAD ST & MAPLEWOOD AVE,39.973218,-82.902787
HAMTECN,S HAMILTON RD & TECH CENTER DR,39.998506,-82.868192
BROWEYW,E BROAD ST & N WEYANT AVE,39.972817,-82.906651
BROHAMPW,E BROAD ST & N HAMPTON RD,39.972516,-82.909396
BROHARDW,E BROAD ST & N HARDING RD,39.971446,-82.919243
BROBRODW,E BROAD ST & N BROADLEIGH RD,39.971175,-82.921729
BROMERW,E BROAD ST & N MERKLE RD,39.970841,-82.924734
BROSTANW,E BROAD ST & N STANWOOD RD,39.97051,-82.927928
BROCASAW,E BROAD ST & N CASSADY AVE,39.969934,-82.93334
BRODREW,E BROAD ST & N DREXEL AVE,39.969393,-82.93816
BROPARVW,E BROAD ST & N PARKVIEW AVE,39.968997,-82.941683
BROMEAW,E BROAD ST & MEADOW PARK AVE,39.968575,-82.945477
BRONELFW,E BROAD ST & N NELSON RD,39.967972,-82.95115
BROWOOW,E BROAD ST & WOODLAND AVE,39.967222,-82.957926
BROPARWW,E BROAD ST & PARKWOOD AVE,39.966962,-82.96029
BROWINW,E BROAD ST & WINNER AVE,39.966352,-82.96567
BROGOVW,E BROAD ST & GOVERNOR PL,39.965974,-82.969109
BROOHIW,E BROAD ST & N OHIO AVE,39.965786,-82.970657
BRO20TW,E BROAD ST & N 20TH ST,39.965381,-82.9741
BRO17TW,E BROAD ST & N 17TH ST,39.964962,-82.977644
BROHAMIW,E BROAD ST & HAMILTON PARK,39.964562,-82.980925
AGL540W,540 AGLER RD,40.019664,-82.896674
HAMFAIS,S HAMILTON RD & FAIRWAY BLVD,39.973554,-82.874648
HAMSANS,S HAMILTON RD & SAN JOSE LN,39.971089,-82.875534
HAMSAIS,S HAMILTON RD & SAINT ANN LN,39.969562,-82.875663
HAMETNS,S HAMILTON RD & ETNA RD,39.964839,-82.876109
HAMRICS,S HAMILTON RD & RICKENBACKER AVE,39.962031,-82.876337
HAMLANS,S HAMILTON RD & LANGLEY AVE,39.95984,-82.876524
HAMWRIS,S HAMILTON RD & WRIGHT AVE,39.958243,-82.876679
HAMMAIS,S HAMILTON RD & E MAIN ST,39.955782,-82.876908
HAMKAEN,S HAMILTON RD & KAE AVE,39.962801,-82.876061
HAMBROHN,S HAMILTON RD & BROADHURST DR,39.967716,-82.875635
HAMSHAN,S HAMILTON RD & SHAKER SQ,39.969673,-82.875455
HAMSANN,S HAMILTON RD & SAN JOSE LN,39.970553,-82.87536
HAMFAIN,S HAMILTON RD & FAIRWAY BLVD,39.973677,-82.874415
HAMSWAS,N HAMILTON RD & SWANSON AVE,39.998493,-82.868421
CASCUMN,CASSADY AVE & CUMBERLAND WOODS DR,40.009756,-82.929373
PARWHIN,PARSONS AVE & E WHITTIER ST,39.944364,-82.982881
BRODAVW,W BROAD ST & N DAVIS AVE,39.959762,-83.021483
BRORODW,W BROAD ST & RODGERS AVE,39.959052,-83.027266
BROYALW,W BROAD ST & N YALE AVE,39.958515,-83.03172
BROCHIW,W BROAD ST & CHICAGO AVE,39.958235,-83.034022
BROCENW,W BROAD ST & N CENTRAL AVE,39.957711,-83.038489
BROSTEW,W BROAD ST & STEVENS AVE,39.957373,-83.041344
STRHARW,2096 STRINGTOWN RD,39.878568,-83.057841
BROLECW,W BROAD ST & LECHNER AVE,39.956042,-83.053535
BROBELW,W BROAD ST & BELLE ST,39.961257,-83.0093
BROMIDLW,W BROAD ST & MIDLAND AVE,39.955803,-83.057783
BROHIGW,W BROAD ST & S HIGHLAND AVE,39.95567,-83.060617
BROOAKW,W BROAD ST & N OAKLEY AVE,39.955564,-83.062757
BROEURW,W BROAD ST & N EUREKA AVE,39.955427,-83.065718
BROOGDW,W BROAD ST & N OGDEN AVE,39.955182,-83.070966
BROHAGW,W BROAD ST & N HAGUE AVE,39.954999,-83.074317
BROHALW,W BROAD ST & HALDY AVE,39.954778,-83.079216
BROWESW,W BROAD ST & N WESTMOOR AVE,39.954665,-83.081733
BROBRIW,W BROAD ST & N BRINKER AVE,39.954538,-83.084265
CAS1884S,1884 N CASSADY AVE,40.0104,-82.929439
BROALGE,W BROAD ST & S ALGONQUIN AVE,39.954304,-83.085414
BROWESGE,W BROAD ST & S WESTGATE AVE,39.954435,-83.082543
BROROYE,W BROAD ST & S ROYS AVE,39.954668,-83.077932
BROHAGE,W BROAD ST & S HAGUE AVE,39.954822,-83.074309
BROWARE,W BROAD ST & S WARREN AVE,39.954979,-83.071311
BROBURE,W BROAD ST & S BURGESS AVE,39.955109,-83.068788
BROWAYE,W BROAD ST & N WAYNE AVE,39.955335,-83.064223
BROHIGE,W BROAD ST & S HIGHLAND AVE,39.955496,-83.060658
BROWHIE,W BROAD ST & WHITETHORNE AVE,39.955668,-83.056952
BROLECE,W BROAD ST & LECHNER AVE,39.955864,-83.053095
BROENTE,W BROAD ST & GLENWOOD PARK,39.956433,-83.047616
BROSTEE,W BROAD ST & STEVENS AVE,39.957201,-83.041354
BROCENE,W BROAD ST & S CENTRAL AVE,39.957644,-83.037744
BROWESPE,W BROAD ST & WEST PARK AVE,39.958147,-83.033487
BROGLEE,W BROAD ST & S GLENWOOD AVE,39.958556,-83.030116
BROHAWE,W BROAD ST & HAWKES AVE,39.95905,-83.026039
BRODAVE,W BROAD ST & S DAVIS AVE,39.959611,-83.021282
BROSKIE,W BROAD ST & S SKIDMORE ST,39.960142,-83.016846
BROMAYE,W BROAD ST & S MAY AVE,39.960441,-83.0144
BROFROE,W BROAD ST & S FRONT ST,39.96188,-83.002666
SOURICS,S SOUDER AVE & W RICH ST,39.955052,-83.022102
HAMSIMN,S HAMILTON RD & SIMPSON DR,39.951418,-82.877238
SULMARTW,SULLIVANT AVE & MARTIN AVE,39.953029,-83.022953
SULAVOW,SULLIVANT AVE & AVONDALE AVE,39.95255,-83.025551
SULGLEW,SULLIVANT AVE & S GLENWOOD AVE,39.951928,-83.028889
SULYALW,SULLIVANT AVE & S YALE AVE,39.951523,-83.031117
SULPRIW,SULLIVANT AVE & S PRINCETON AVE,39.951055,-83.033617
SULCENW,SULLIVANT AVE & S CENTRAL AVE,39.950561,-83.036319
SULMARW,SULLIVANT AVE & MARTHA AVE,39.94982,-83.040213
SULCATW,SULLIVANT AVE & CATHERINE ST,39.94936,-83.04266
SULLARW,SULLIVANT AVE & LARCOMB AVE,39.948585,-83.046775
SULNASW,SULLIVANT AVE & NASHOBA AVE,39.947864,-83.050629
SULWREW,SULLIVANT AVE & WREXHAM AVE,39.947396,-83.053127
SULWHIW,SULLIVANT AVE & WHITETHORNE AVE,39.946867,-83.055911
SULCLAW,SULLIVANT AVE & CLARENDON AVE,39.946424,-83.058307
SULWAYW,SULLIVANT AVE & S WAYNE AVE,39.945467,-83.063423
SULTERW,SULLIVANT AVE & S TERRACE AVE,39.944929,-83.066236
SULBURW,SULLIVANT AVE & S BURGESS AVE,39.944473,-83.068734
SULWARW,SULLIVANT AVE & S WARREN AVE,39.944025,-83.071081
SULHAGW,SULLIVANT AVE & S HAGUE AVE,39.943768,-83.073476
SULCHEW,SULLIVANT AVE & CHESTERSHIRE RD,39.943641,-83.075566
SULBINW,SULLIVANT AVE & BINNS BLVD,39.94353,-83.077888
SULDEXE,SULLIVANT AVE & DEXTER AVE,39.942938,-83.08799
SULBRIE,SULLIVANT AVE & S BRINKER AVE,39.94313,-83.083533
SULBINE,SULLIVANT AVE & BINNS BLVD,39.943373,-83.078295
SULCHEE,SULLIVANT AVE & CHESTERSHIRE RD,39.943521,-83.075515
SULHAGE,SULLIVANT AVE & S HAGUE AVE,39.943656,-83.072848
SULOGDE,SULLIVANT AVE & S OGDEN AVE,39.944118,-83.07001
SULRICE,SULLIVANT AVE & S RICHARDSON AVE,39.944707,-83.066869
SULEURE,SULLIVANT AVE & S EUREKA AVE,39.945166,-83.064436
SULBELE,SULLIVANT AVE & BELVIDERE AVE,39.946969,-83.054771
SULHILE,SULLIVANT AVE & HILLTONIA AVE,39.947469,-83.052228
SULCOLE,SULLIVANT AVE & COLUMBIAN AVE,39.94791,-83.049876
SULLARE,SULLIVANT AVE & LARCOMB AVE,39.948414,-83.047163
SULHELE,SULLIVANT AVE & HELEN ST,39.948981,-83.044132
SULRYAE,SULLIVANT AVE & RYAN AVE,39.949445,-83.041752
SULGUIE,SULLIVANT AVE & S GUILFORD AVE,39.950264,-83.037351
SULDANE,SULLIVANT AVE & DANA AVE,39.950783,-83.034558
SULWESE,SULLIVANT AVE & WEST PARK AVE,39.951245,-83.032102
SULGLEE,SULLIVANT AVE & S GLENWOOD AVE,39.951763,-83.029284
SULHAWE,SULLIVANT AVE & HAWKES AVE,39.952628,-83.024666
SULSOUE,SULLIVANT AVE & S SOUDER AVE,39.953161,-83.021841
WHIPEAE,E WHITTIER ST & S PEARL ST,39.943903,-82.996285
WHI3RDE,E WHITTIER ST & S 3RD ST,39.944095,-82.994573
WHIJAEE,E WHITTIER ST & JAEGER ST,39.944486,-82.990264
WHIBRUE,E WHITTIER ST & BRUCK ST,39.944351,-82.987564
WHIPARE,E WHITTIER ST & PARSONS AVE,39.944123,-82.983295
WHIANNE,E WHITTIER ST & ANN ST,39.943996,-82.980743
WHIOPPE,E WHITTIER ST & CARPENTER ST,39.943714,-82.975339
WHI22NE,E WHITTIER ST & S 22ND ST,39.943613,-82.973459
WHICHAE,E WHITTIER ST & S CHAMPION AVE,39.943477,-82.970701
WHIWILE,E WHITTIER ST & WILSON AVE,39.943343,-82.967974
WHISTUE,E WHITTIER ST & STUDER AVE,39.94321,-82.965251
WHIMILE,E WHITTIER ST & MILLER AVE,39.943148,-82.962439
WHIKELE,E WHITTIER ST & KELTON AVE,39.943046,-82.960278
WHIBERE,E WHITTIER ST & BERKELEY RD,39.943033,-82.957888
WHISEYW,E WHITTIER ST & SEYMOUR LOOP,39.943126,-82.955202
WHILILW,E WHITTIER ST & LILLEY AVE,39.943159,-82.958744
WHIELLW,E WHITTIER ST & ELLSWORTH AVE,39.943203,-82.961006
WHILOCW,E WHITTIER ST & LOCKBOURNE RD,39.943296,-82.963396
WHILINW,E WHITTIER ST & LINWOOD AVE,39.943368,-82.96615
WHIOAKW,E WHITTIER ST & OAKWOOD AVE,39.943529,-82.969529
WHIOHIW,E WHITTIER ST & S OHIO AVE,39.943636,-82.971726
WHIGILW,E WHITTIER ST & GILBERT ST,39.943773,-82.974309
WHIHEYW,E WHITTIER ST & HEYL AVE,39.943916,-82.977244
WHI17TW,E WHITTIER ST & S 17TH ST,39.944015,-82.979137
WHIPARW,E WHITTIER ST & PARSONS AVE,39.944274,-82.982852
WHIBEEW,E WHITTIER ST & BEECH ST,39.944383,-82.985954
WHIEBNW,E WHITTIER ST & EBNER ST,39.944507,-82.988398
WHI5THW,E WHITTIER ST & S 5TH ST,39.944588,-82.991193
WHI3RDW,E WHITTIER ST & S 3RD ST,39.944253,-82.994159
PARWHIS,PARSONS AVE & E WHITTIER ST,39.944378,-82.983036
PARZIMS,PARSONS AVE & ZIMPFER ST,39.942286,-82.983197
PARGATS,PARSONS AVE & E GATES ST,39.937022,-82.983612
PARFRES,PARSONS AVE & FREBIS AVE,39.935229,-82.983741
PARSHES,PARSONS AVE & SHELDON AVE,39.933649,-82.983865
PARSOUS,PARSONS AVE & SOUTHWOOD AVE,39.931704,-82.984011
PARWELS,PARSONS AVE & E WELCH AVE,39.929662,-82.984158
PARINNS,PARSONS AVE & E INNIS AVE,39.925977,-82.984424
PARBARS,PARSONS AVE & E BARTHMAN AVE,39.923919,-82.984577
PARGROS,PARSONS AVE & GROVEPORT RD,39.919524,-82.984892
PARDERS,PARSONS AVE & DERING AVE,39.912155,-82.985417
PARCORS,PARSONS AVE & CORR RD,39.909573,-82.985637
PARALCS,PARSONS AVE & E ALCOTT RD,39.906179,-82.985876
PARZIES,PARSONS AVE & ZIEGLER AVE,39.902842,-82.986133
PARRUMS,PARSONS AVE & RUMSEY RD,39.893606,-82.98686
PARWILN,PARSONS AVE & WILLIAMS RD,39.891621,-82.986899
PARRUMN,PARSONS AVE & RUMSEY AVE,39.893735,-82.986722
PARHILN,PARSONS AVE & HILOCK AVE,39.897331,-82.986445
PARZIEN,PARSONS AVE & ZIEGLER AVE,39.902785,-82.986007
PARALCN,PARSONS AVE & E ALCOTT RD,39.906056,-82.985761
PARCORN,PARSONS AVE & CORR RD,39.908953,-82.985549
PARDERN,PARSONS AVE & DERING AVE,39.912213,-82.985286
PARMARN,PARSONS AVE & MARION RD,39.923529,-82.984469
PARINNN,PARSONS AVE & E INNIS AVE,39.925995,-82.984226
PARMORN,PARSONS AVE & E MORRILL AVE,39.929639,-82.983992
PARMARN1,PARSONS AVE & E MARKISON AVE,39.931049,-82.983877
PARJENN,PARSONS AVE & E JENKINS AVE,39.933492,-82.983703
PARFREN,PARSONS AVE & FREBIS AVE,39.935386,-82.983562
PARGATN,PARSONS AVE & E GATES ST,39.937371,-82.983408
PARTHUN,PARSONS AVE & THURMAN AVE,39.939452,-82.983238
PARSTEN,PARSONS AVE & STEWART AVE,39.941645,-82.983073
CLE585S,CLEVELAND AVE & ABBOTT LABS,39.975109,-82.990128
PARSYCN,PARSONS AVE & SYCAMORE ST,39.949553,-82.982476
PARGROVN,PARSONS AVE & GROVEPORT RD,39.918561,-82.984792
NORZOLS,NORTHWEST BLVD & ZOLLINGER RD,40.018418,-83.057489
NORRIDS,NORTHWEST BLVD & RIDGEVIEW RD,40.014595,-83.057744
NORNORTS,NORTHWEST BLVD & NORTHAM RD,40.01193,-83.057937
NORLANSE,NORTHWEST BLVD & W LANE AVE,40.00687,-83.058276
NORSUFSE,NORTHWEST BLVD & SUFFOLK RD,40.003781,-83.058158
NORGUISE,NORTHWEST BLVD & GUILFORD RD,40.001897,-83.055686
NORBARSE,NORTHWEST BLVD & BARRINGTON RD,40.000038,-83.054414
NORGLESE,NORTHWEST BLVD & GLENN AVE,39.998425,-83.052558
NORSTASE,NORTHWEST BLVD & STANFORD RD,39.996615,-83.049054
NORNORSE,NORTHWEST BLVD & NORTHWEST CT,39.995753,-83.046862
NORCHASE,NORTHWEST BLVD & CHAMBERS RD,39.993457,-83.041924
NOR5THS,NORTHWEST BLVD & W 5TH AVE,39.988828,-83.040963
NORTHOSE,NORTHWEST BLVD & THORNWOOD PL,39.986836,-83.041075
3RDMEAW,W 3RD AVE & MEADOW RD,39.984886,-83.038725
NORKINN,NORTHWEST BLVD & KING AVE,39.991299,-83.040489
NORINDNW,NORTHWEST BLVD & INDEPENDENCE RD,39.994944,-83.044784
NORNORN,NORTHWEST BLVD & NORTHWEST CT,39.995721,-83.046454
NORNORNW,NORTHWEST BLVD & NORTH STAR RD,39.996829,-83.04911
NORWILSN,NORTHWEST BLVD & WILSHIRE DR,40.009517,-83.057918
NORRIDN,NORTHWEST BLVD & RIDGEVIEW RD,40.014359,-83.057619
FISCHAW,FISHINGER RD & CHAUCER DR,40.024132,-83.050426
FISPEMW,FISHINGER RD & PEMBERTON DR,40.024287,-83.054384
HIGBROS,N HIGH ST & W BROAD ST,39.962805,-83.000871
VANREDS,VANTAGE DR & RED ROOF INN,40.116283,-83.014579
HENGETE,HENDERSON RD & GETTYSBURG RD,40.055934,-83.072279
GOO582W,582 W GOODALE ST,39.974278,-83.019074
GOOYARW,GOODALE BLVD & YARD ST,39.974241,-83.023787
NORGOON,NORTHWEST BLVD & GOODALE BLVD,39.974832,-83.02899
NORBURNW,NORTHWEST BLVD & BURR AVE,39.976434,-83.029127
NORWILLN,NORTHWEST BLVD & WILLIAMS AVE,39.977925,-83.02979
1STNORW,W 1ST AVE & NORTHWEST BLVD,39.979676,-83.032031
1STOXLW,W 1ST AVE & OXLEY RD,39.979931,-83.034525
1STVIRW,W 1ST AVE & VIRGINIA AVE,39.981173,-83.037587
1STWILW,W 1ST AVE & WILLARD AVE,39.981563,-83.038645
1STAVOW,W 1ST AVE & AVONDALE AVE,39.98176,-83.041759
1STGRAW,W 1ST AVE & GRANDVIEW AVE,39.981894,-83.04484
1STOAKW,W 1ST AVE & OAKLAND AVE,39.982045,-83.04905
1STELMW,W 1ST AVE & ELMWOOD AVE,39.98218,-83.051553
1STGLEW,W 1ST AVE & GLENN AVE,39.982288,-83.054016
1STLINW,W 1ST AVE & LINCOLN RD,39.982403,-83.056614
3RDCAMW,W 3RD AVE & CAMBRIDGE BLVD,39.985756,-83.058266
ARLCARN,ARLINGTON AVE & CARDIGAN AVE,39.986536,-83.05983
5THARLW,W 5TH AVE & ARLINGTON AVE,39.989567,-83.06112
ARLCARS,ARLINGTON AVE & CARDIGAN AVE,39.986927,-83.060014
3RDCAME,W 3RD AVE & CAMBRIDGE BLVD,39.985638,-83.058262
CAM1STS,CAMBRIDGE BLVD & W 1ST AVE,39.982506,-83.05826
1STWYAE,W 1ST AVE & WYANDOTTE RD,39.982237,-83.055612
1STWESE,W 1ST AVE & WESTWOOD AVE,39.982129,-83.053101
1STASHE,W 1ST AVE & ASHLAND AVE,39.982018,-83.050588
1STFAIE,W 1ST AVE & FAIRVIEW AVE,39.98191,-83.048062
1STHOPE,W 1ST AVE & HOPE AVE,39.98161,-83.04033
1STVIRE,W 1ST AVE & VIRGINIA AVE,39.981012,-83.037558
1STOXLE,W 1ST AVE & OXLEY RD,39.97978,-83.034182
NOR1STSE,NORTHWEST BLVD & W 1ST AVE,39.979511,-83.031947
NORBURSE,NORTHWEST BLVD & BURR AVE,39.976815,-83.029509
NORGOOS,NORTHWEST BLVD & GOODALE BLVD,39.974842,-83.029264
GOOYARE,GOODALE BLVD & YARD ST,39.974163,-83.026091
HARMOUS,HARRISBURG PIKE & W MOUND ST,39.944606,-83.036764
HAR771S,771 HARRISBURG PIKE,39.941809,-83.038887
HARGARS,HARRISBURG PIKE & GARLING AVE,39.939865,-83.040387
HARRANS,HARRISBURG PIKE & RANSBURG AVE,39.937486,-83.042238
HARROSS,HARRISBURG PIKE & ROSEMONT AVE,39.9359,-83.043564
HAR111S,1117 HARRISBURG PIKE,39.933384,-83.046745
HAREAKS1,HARRISBURG PIKE & EAKIN RD,39.931744,-83.048832
HAR151S,1515 HARRISBURG PIKE,39.926463,-83.057121
HAR165S,1657 HARRISBURG PIKE,39.923768,-83.059249
HARCLIS,HARRISBURG PIKE & CLIME RD,39.92069,-83.061773
HARALKS,HARRISBURG PIKE & ALKIRE RD,39.915172,-83.065953
HARBLUS,HARRISBURG PIKE & BLUE ROCK BLVD,39.911203,-83.069367
HARHYDS,HARRISBURG PIKE & HYDE RD,39.908832,-83.071707
BROHOMS,BROADWAY & HOME RD,39.901249,-83.077996
BROROSS,BROADWAY & ROSE AVE,39.887929,-83.088704
BROBURS,BROADWAY & BURR OAK DR,39.885675,-83.090658
COLLEIW,COLUMBUS ST & LEITHART DR,39.881304,-83.072052
COLSECW,COLUMBUS ST & SECURITY DR,39.881426,-83.076882
RICSOUNF,RICHARD AVE & SOUTHWEST BLVD,39.890952,-83.080245
RICADDN,RICHARD AVE & ADDISON DR,39.89273,-83.080176
RICPARN,RICHARD AVE & PARLIN DR,39.895049,-83.078824
PARBROW,PARLIN DR & BROADWAY,39.89551,-83.081867
BROCENN,BROADWAY & CENTRAL AVE,39.897761,-83.080449
BRO3136,3136 BROADWAY,39.900469,-83.078398
HARHYDN,HARRISBURG PIKE & HYDE RD,39.908845,-83.071358
HARREDN,HARRISBURG PIKE & RED ROCK BLVD,39.914253,-83.066391
HARBIGN,HARRISBURG PIKE & BIG RUN RD E,39.916344,-83.064898
HAR196N,1896 HARRISBURG PIKE,39.919363,-83.062659
HARFRAN,HARRISBURG PIKE & FRANK RD,39.921589,-83.060873
HAROCTN,HARRISBURG PIKE & OCTOBER RIDGE DR,39.92646,-83.056896
HARHOPN,HARRISBURG PIKE & HOPKINS AVE,39.932286,-83.047909
HARBELN,HARRISBURG PIKE & BELMEAD AVE,39.933296,-83.0466
HARLAUN,HARRISBURG PIKE & LAUREL AVE,39.93483,-83.044652
HARROSN,HARRISBURG PIKE & ROSEMONT AVE,39.935942,-83.043295
HARRANN,HARRISBURG PIKE & RANSBURG AVE,39.937412,-83.042067
HARGARN,HARRISBURG PIKE & GARLING AVE,39.939746,-83.040263
HAR800N,800 HARRISBURG PIKE,39.941849,-83.038657
FIE5THN,FIELDS AVE & E 5TH AVE,39.987117,-82.991984
SHAJEWN,SHARON WOODS BLVD & JEWETT DR,40.097314,-82.963009
SHACARN,SHARON WOODS BLVD & CARDINGTON AVE,40.100078,-82.962105
SHABRON,SHARON WOODS BLVD & BROOKHURST AVE,40.103727,-82.963119
REFCOUE,REFUGEE RD & COURTRIGHT RD,39.916357,-82.897176
CLEBLEN1,CLEVELAND AVE & BLENDON WOODS BLVD,40.093387,-82.950331
CLEBELLN,CLEVELAND AVE & BELLA VIA AVE,40.096026,-82.95013
CLEHOMN,CLEVELAND AVE & HOME ACRE DR,40.097983,-82.949969
CLESCHN,S CLEVELAND AVE & SCHROCK RD,40.111193,-82.949019
CLECOPN,S CLEVELAND AVE & COPELAND MILL RD,40.112709,-82.948918
CLE340N,340 S CLEVELAND AVE,40.116149,-82.948663
CLEDEES,CLEVELAND AVE & DEEWOOD DR,40.09633,-82.950307
CLELAUS,CLEVELAND AVE & LAURELWOOD DR,40.093165,-82.950543
CLEFUJS,CLEVELAND AVE & FUJI DR,40.088864,-82.950876
CLELAMN,CLEVELAND AVE & LAMONT AVE,40.043049,-82.959723
CLEFERN,CLEVELAND AVE & FERRIS RD,40.050481,-82.953587
CLEBELCN,CLEVELAND AVE & BELCHER DR,40.0555,-82.953204
CLEMORN,CLEVELAND AVE & MORSE RD,40.05916,-82.952914
CLEABIN,CLEVELAND AVE & ABINGTON RD,40.064432,-82.952521
CLENORWN,CLEVELAND AVE & NORTHWOLD RD,40.06658,-82.952353
CLEWOON,CLEVELAND AVE & WOODLEY RD,40.076189,-82.951621
CLEWILN,CLEVELAND AVE & WILDWOOD RD,40.07885,-82.951434
STASCHN,S STATE ST & E SCHROCK RD,40.110056,-82.925583
STACHEN,S STATE ST & CHERRINGTON RD,40.113928,-82.927039
STAWALN,S STATE ST & E WALNUT ST,40.121968,-82.93005
NEIKINN,NEIL AVE & KING AVE,39.990627,-83.01365
NAGCLEE,E NAGHTEN ST & CLEVELAND AVE,39.968547,-82.990802
STAWALS,S STATE ST & W WALNUT ST,40.121252,-82.929997
STAHIAS,S STATE ST & HIAWATHA AVE,40.117963,-82.928776
STACHES,S STATE ST & CHERRINGTON RD,40.114206,-82.927396
STASCHS,S STATE ST & E SCHROCK RD,40.110421,-82.92597
CLE161SF,CLEVELAND AVE & STATE ROUTE 161,40.084198,-82.951251
CLEWILS,CLEVELAND AVE & WILDWOOD RD,40.078492,-82.951662
CLEWOOS,CLEVELAND AVE & WOODLEY RD,40.07594,-82.951844
CLETAYS,CLEVELAND AVE & TAYMOUTH RD,40.066348,-82.95259
CLEMORS,CLEVELAND AVE & MORSE RD,40.058766,-82.953179
CLEBELS,CLEVELAND AVE & BELCHER DR,40.054783,-82.95349
CLEFERS,CLEVELAND AVE & FERRIS RD,40.049263,-82.9541
CLECOOS,CLEVELAND AVE & E COOKE RD,40.045064,-82.9581
CLELAMS,CLEVELAND AVE & LAMONT AVE,40.042989,-82.960053
CLEELMS,CLEVELAND AVE & ELMORE AVE,40.041489,-82.960877
MAINOEE,E MAIN ST & NOE BIXBY RD,39.954685,-82.851808
SPRFROW,W SPRING ST & N FRONT ST,39.966206,-83.002663
MAINOEW,E MAIN ST & NOE BIXBY RD,39.954829,-82.852023
HARZETS,HARRISBURG PIKE & ZETTLER CENTER DR,39.930187,-83.05124
CAS10TN,N CASSADY AVE & E 10TH AVE,39.989676,-82.930527
CAS13TN,N CASSADY AVE & E 13TH AVE,39.992386,-82.930261
CASBAYN,N CASSADY AVE & BAYLOR AVE,40.013914,-82.929097
CASCASN,N CASSADY AVE & CASSADY VILLAGE TRL,40.016834,-82.928912
AGLPENE,AGLER RD & PENDLETON PL,40.020962,-82.926823
CASAGLS,N CASSADY AVE & AGLER RD,40.02031,-82.928792
CASBAYS,N CASSADY AVE & BAYLOR AVE,40.013361,-82.929237
KENLONS,KENNY RD & LONDON DR,40.027958,-83.046966
5THTAYE,E 5TH AVE & TAYLOR AVE,39.98519,-82.960575
5THSTEE,E 5TH AVE & STERLING AVE,39.984658,-82.919914
5THJAME,E 5TH AVE & N JAMES RD,39.984409,-82.908644
CASKENS,N CASSADY AVE & KENILWORTH RD,39.992087,-82.930414
CAS5THS,N CASSADY AVE & E 5TH AVE,39.985403,-82.93154
5TH7THE,E 5TH AVE & E 7TH AVE,39.985158,-82.904661
5TH370E,3706 E 5TH AVE,39.985602,-82.89967
LIVNOEE,E LIVINGSTON AVE & NOE BIXBY RD,39.943321,-82.853274
LIVLONE,E LIVINGSTON AVE & LONSDALE RD,39.94315,-82.850289
LIVBAIE,E LIVINGSTON AVE & BAIRSFORD DR,39.943061,-82.844026
LIVWALE,E LIVINGSTON AVE & WALNUT HILL BLVD,39.942447,-82.837859
LIVSARE,E LIVINGSTON AVE & SARANAC DR,39.942287,-82.835388
LIVBRIE,E LIVINGSTON AVE & BRICE RD,39.941991,-82.830317
MAIHAFE,E MAIN ST & HAFT DR,39.955118,-82.806291
MAIJACE,E MAIN ST & JACKSON ST,39.955238,-82.800358
MAIGRAHE,E MAIN ST & GRAHAM RD,39.955324,-82.795674
5TH430E,4301 E 5TH AVE,39.987174,-82.88955
5TH4301W,4301 E 5TH AVE,39.987441,-82.88947
MAIJACW,E MAIN ST & JACKSON ST,39.955403,-82.799452
MAIHAFW,E MAIN ST & HAFT DR,39.955272,-82.806424
MAIHENW,E MAIN ST & HENTZ DR,39.955124,-82.81465
SAIBUCN,SAINT CLAIR AVE & BUCKINGHAM ST,39.972817,-82.980713
LIVBAIW,E LIVINGSTON AVE & BAIRSFORD DR,39.943203,-82.844267
LIVLONW,E LIVINGSTON AVE & LONSDALE RD,39.943288,-82.84989
LIVNOEW,E LIVINGSTON AVE & NOE BIXBY RD,39.943522,-82.85402
5TH3925W,3925 E 5TH AVE,39.985828,-82.899913
REFNOEW,REFUGEE RD & NOE BIXBY RD,39.915209,-82.864474
REFTENW,REFUGEE RD & TENNYSON BLVD,39.915223,-82.873639
REFCOUW,REFUGEE RD & COURTRIGHT RD,39.916572,-82.897403
REFWEYW,REFUGEE RD & WEYBURN RD,39.916942,-82.90424
5TH7THW,E 5TH AVE & E 7TH AVE,39.985374,-82.90491
REFSCHE,REFUGEE RD & SCHWARTZ RD,39.916989,-82.908666
REFWEYE,REFUGEE RD & WEYBURN RD,39.916702,-82.903389
REFCITE,REFUGEE RD & CITIZENS PL,39.915317,-82.878453
REFTENE,REFUGEE RD & TENNYSON BLVD,39.915055,-82.873509
CHANOEE,CHATTERTON RD & NOE BIXBY RD,39.915489,-82.862542
5THJAMW,E 5TH AVE & N JAMES RD,39.984674,-82.908535
5THTAYW,E 5TH AVE & TAYLOR AVE,39.985329,-82.959929
MAITALE,MAIN ST & TALLMAN ST,39.854471,-82.896659
MAIMADE,MAIN ST & MADISON ST,39.853525,-82.894152
MAIWESE2,MAIN ST & WEST ST,39.852356,-82.88954
MAIRAVE,MAIN ST & RAVER AL,39.851996,-82.887095
MAIWESW1,MAIN ST & WEST ST,39.852392,-82.888992
MAIMADW,MAIN ST & MADISON ST,39.853443,-82.89359
HILNIKN,HILLIARD ROME RD & NIKE DR,39.99464,-83.152323
HILROBN,HILLIARD ROME & ROBERTS RD,40.004176,-83.153716
MAILUTN,MAIN ST & LUTHER LN,40.022668,-83.160047
CEMOUTE,CEMETERY RD & OUTER ST,40.031351,-83.14321
CEMLEAE,CEMETERY RD & LEAP RD,40.031688,-83.139517
5THSAIW,E 5TH AVE & SAINT CLAIR AVE,39.986147,-82.979985
SAIOLDN,SAINT CLAIR AVE & LEONARD AVE,39.975619,-82.98047
MAILUTS,MAIN ST & LUTHER LN,40.022595,-83.160279
FISKENW,FISHINGER RD & KENNY RD,40.023532,-83.043678
MCK3265S,3265 MCKINLEY AVE,39.994035,-83.084398
FISEASE,FISHINGER RD & EASTON PL,40.023398,-83.044372
KENOBEN,KENNY RD & OBERLIN DR,40.026039,-83.04502
KARHEMN,KARL RD & HEMPWOOD DR,40.084379,-82.975397
KAR603S,6035 KARL RD,40.090465,-82.975471
KAR629N,6292 KARL RD,40.095771,-82.975976
REFCITW1,REFUGEE RD & CITIZENS PL,39.915478,-82.877804
REFSCHW,REFUGEE RD & SCHWARTZ RD,39.917157,-82.909024
OLE3368N,3368 OLENTANGY RIVER RD,40.027669,-83.027931
NORSHAW,W NORTH BROADWAY & SHATTUCK AVE,40.029258,-83.042184
NORCLEW,W NORTH BROADWAY & CLEARVIEW AVE,40.028778,-83.046258
KENKENBN,KENNY RD & KENBROOK COMMON ST,40.030707,-83.049128
KENTREN,KENNY RD & TREMONT RD,40.032578,-83.050716
KENMILN,KENNY RD & MILLCREEK LN,40.036443,-83.050656
KENHIGN,KENNY RD & HIGHLAND DR,40.040346,-83.050398
KENPARN,KENNY RD & PARKLEIGH RD,40.043286,-83.050217
KENWINN,KENNY RD & WINDHAM RD,40.046919,-83.049952
KENFOLN,KENNY RD & FOLKESTONE RD,40.050026,-83.04971
MAISTAW,W MAIN ST & N STATE ST,40.126569,-82.932967
KENMERN,KENNY RD & MERRIMAR CIR S,40.054178,-83.049463
KENWEYN,KENNY RD & WEYBRIDGE RD,40.056475,-83.049345
MOUGRANW,MOUNT VERNON AVE & N GRANT AVE,39.969376,-82.992375
GODLANSE,GODOWN RD & LANGLAND DR,40.061304,-83.053138
GODCHEE,GODOWN RD & CHEVIOT DR,40.060213,-83.051327
KENWEYS,KENNY RD & WEYBRIDGE RD,40.05667,-83.04947
KENMERS,KENNY RD & MERRIMAR CIR N,40.054042,-83.049669
KENFOLS,KENNY RD & FOLKESTONE RD,40.050478,-83.049884
KENWINS,KENNY RD & WINDHAM RD,40.046527,-83.050149
KENPARS,KENNY RD & PARKLEIGH RD,40.043228,-83.050394
KENMCCS,KENNY RD & MCCOY RD,40.040292,-83.050605
KENMILS,KENNY RD & MILLCREEK LN,40.036631,-83.050863
NORCLEE,W NORTH BROADWAY & CLEARVIEW AVE,40.02873,-83.045614
NORSHAE,W NORTH BROADWAY & SHATTUCK AVE,40.029015,-83.042568
NORENTE,W NORTH BROADWAY & RIVERSIDE HOSP,40.029301,-83.034629
OLEUNIS,OLENTANGY RIVER RD & UNION CEMETERY,40.027108,-83.027846
MAIHEAE,E MAIN ST & HEATHERWOOD DR,39.954727,-82.854714
LINSHANW,LINWORTH RD & SHARON HILL DR,40.06813,-83.040529
LINMEENW,LINWORTH RD & MEEKLYNN DR,40.075231,-83.044875
LINROCN,LINWORTH RD & ROCKY RILL RD,40.077798,-83.047447
LINSEDN,LINWORTH RD & SEDGWICK RD,40.083407,-83.049705
LIN161N,LINWORTH RD & STATE ROUTE 161,40.089908,-83.049451
OLEOLDES,OLENTANGY RIVER RD & OLDE TOWNE AVE,40.058596,-83.034747
MAIMCNE,E MAIN ST & MCNAUGHTEN RD,39.954665,-82.837873
MAIIDLE,E MAIN ST & IDLEWILD DR,39.954708,-82.831149
MAIBRICE,E MAIN ST & BRICE RD,39.954747,-82.827904
MAI652E,6523 E MAIN ST,39.954808,-82.823552
OLEOLDEN,OLENTANGY RIVER RD & OLDE TOWNE AVE,40.058278,-83.034478
REYRIDSW,REYNOLDSBURG PARK & RIDE,39.939285,-82.827489
OLELANN,OLENTANGY RIVER RD & W LANE AVE,40.007262,-83.022953
GRA5THS,GRANDVIEW AVE & W 5TH AVE,39.988412,-83.044558
MAIROSEE,E MAIN ST & ROSEHILL RD,39.954896,-82.818746
MAIHENE,E MAIN ST & HENTZ DR,39.954963,-82.81478
ALUCORN,ALUM CREEK DR & CORVAIR BLVD,39.927992,-82.93792
ALUFRAN,ALUM CREEK DR & INTEGRITY DR S,39.932249,-82.941459
FREALUW,FREBIS AVE & ALUM CREEK DR,39.933734,-82.943244
FREFREW,FREBIS AVE & FREBIS LN,39.933849,-82.947355
FRETHEW,FREBIS AVE & THELMA B KEE,39.93406,-82.952012
FREFAIW,FREBIS AVE & FAIRWOOD AVE,39.934178,-82.954708
FREBERW,FREBIS AVE & BERKELEY RD,39.934365,-82.958607
FREELLW,FREBIS AVE & ELLSWORTH AVE,39.934527,-82.961788
CHAMITN,S CHAMPION AVE & E MITHOFF ST,39.937623,-82.970934
CHAWHIN,S CHAMPION AVE & E WHITTIER ST,39.943206,-82.97051
CHAKOSN,S CHAMPION AVE & E KOSSUTH ST,39.945425,-82.970367
CHAFORN,S CHAMPION AVE & FOREST ST,39.947392,-82.97021
CHALIVN,S CHAMPION AVE & E LIVINGSTON AVE,39.949949,-82.970001
CHANEWN,S CHAMPION AVE & NEWTON ST,39.951298,-82.969909
CHAFULN,S CHAMPION AVE & E FULTON ST,39.955394,-82.969587
CHAMAIN,S CHAMPION AVE & E MAIN ST,39.95763,-82.969422
CHABRYN,S CHAMPION AVE & BRYDEN RD,39.960736,-82.969148
CHAOAKN,S CHAMPION AVE & OAK ST,39.962503,-82.969017
GOVBRON,GOVERNOR PL & E BROAD ST,39.966513,-82.968453
OHIBROS,S OHIO AVE & E BROAD ST,39.965335,-82.970308
OHIOAKS,S OHIO AVE & OAK ST,39.962899,-82.970511
OHIBRYS,S OHIO AVE & BRYDEN RD,39.960672,-82.970697
OHIMAIS,S OHIO AVE & E MAIN ST,39.957624,-82.970937
OHIMOOS,S OHIO AVE & MOOBERRY ST,39.953041,-82.971293
OHILIVS,S OHIO AVE & E LIVINGSTON AVE,39.949996,-82.971538
OHISYCS,S OHIO AVE & E SYCAMORE ST,39.948517,-82.97164
OHICOLS,S OHIO AVE & E COLUMBUS ST,39.946334,-82.971801
OHIWHIS,S OHIO AVE & E WHITTIER ST,39.943761,-82.971989
MORKARE1,MORSE RD & KARL RD,40.060374,-82.976404
OHISTES,S OHIO AVE & STEWART AVE,39.94111,-82.972184
OHITHUS,S OHIO AVE & THURMAN AVE,39.938458,-82.972388
FREBERE,FREBIS AVE & BERKELEY RD,39.934236,-82.958428
FRETHEE,FREBIS AVE & THELMA B KEE,39.933948,-82.952251
ALUFRES,ALUM CREEK DR & FREBIS AVE,39.933184,-82.942166
ALUCORS,ALUM CREEK DR & CORVAIR BLVD,39.928271,-82.938362
HUDOPPE,E HUDSON ST & HOMECROFT DR,40.014697,-82.99201
HUDPONE,E HUDSON ST & PONTIAC ST,40.01459,-82.989475
HUDHIAE,E HUDSON ST & HIAWATHA PARK DR,40.014491,-82.987129
NOTDORW,NOTTINGHAM RD & S DORCHESTER RD,40.02555,-83.080243
NOTKIOW,NOTTINGHAM RD & KIOKA AVE,40.025712,-83.08395
NOTMOUW,NOTTINGHAM RD & MOUNTVIEW RD,40.025239,-83.073027
NOTRAMW,NOTTINGHAM RD & RAMSGATE RD,40.025399,-83.076582
RIDMOUW,RIDGECLIFF RD & MOUNTVIEW RD,40.023125,-83.072423
HUDOPPW,E HUDSON ST & GRASMERE AVE,40.014424,-82.983516
HUDAZEW,E HUDSON ST & AZELDA AVE,40.014602,-82.987502
HUDOSCW,E HUDSON ST & OSCEOLA AVE,40.014704,-82.989737
HUDHOMW,E HUDSON ST & HOMECROFT DR,40.014822,-82.992491
HUDDAYW,E HUDSON ST & DAYTON AVE,40.015428,-83.004343
HUDADAW,E HUDSON ST & ADAMS AVE,40.015157,-83.007251
5THNORW,E 5TH AVE & NORTHVIEW AVE,39.98529,-82.933844
OAKOAKW,OAKLAND PARK AVE & OAKLAWN ST,40.031572,-82.968684
OAKNORW,OAKLAND PARK AVE & NORWOOD ST,40.031732,-82.971868
OAKOPPW,OAKLAND PARK AVE & ONTARIO ST,40.031909,-82.975358
GRA3RDS,GRANDVIEW AVE & W 3RD AVE,39.985266,-83.044832
MAIENFE,E MAIN ST & ENFIELD RD,39.956649,-82.920334
OLE3440S,3440 OLENTANGY RIVER RD,40.029064,-83.029427
OAKEISW,OAKLAND PARK AVE & EISENHOWER RD,40.032767,-82.993408
EISBROS,EISENHOWER RD & E NORTH BROADWAY,40.031224,-82.993679
NORINDW,E NORTH BROADWAY ST & INDIANOLA AVE,40.031366,-83.001457
NORHIGW,W NORTH BROADWAY & N HIGH ST,40.03166,-83.016652
NORMILW,W NORTH BROADWAY & MILTON AVE,40.031766,-83.020866
NORMILE,W NORTH BROADWAY & MILTON AVE,40.031635,-83.021429
NORHIGE,W NORTH BROADWAY & N HIGH ST,40.031534,-83.016201
MAIBRIE,E MAIN ST & BRIARCLIFF RD,39.955021,-82.811486
MAIROSEW,E MAIN ST & ROSEHILL RD,39.955042,-82.819482
MAI650W,6500 E MAIN ST,39.954985,-82.823027
MAIBRICW,E MAIN ST & BRICE RD,39.954883,-82.829692
MAIMCNW,E MAIN ST & MCNAUGHTEN RD,39.954851,-82.837082
MAIHEAW,E MAIN ST & HEATHERWOOD DR,39.954901,-82.854892
MAIFOUW,E MAIN ST & FOUNTAIN LN,39.955052,-82.860003
CLECOMN,CLEVELAND AVE & COMMUNITY PARK DR,40.100942,-82.949684
CLECOMS,CLEVELAND AVE & COMMUNITY PARK DR,40.100057,-82.950029
HAMMELN,S HAMILTON RD & MELROY AVE,39.949051,-82.877409
OAKMAIE,OAKLAND PARK AVE & MAIZE RD,40.032495,-82.989805
REFOLDE,REFUGEE RD & OLD COURTRIGHT RD,39.916189,-82.893526
KARSHAS,KARL RD & SHANLEY DR,40.054808,-82.976484
HAR187S,1871 HARRISBURG PIKE,39.91958,-83.062691
HAR144N,1440 HARRISBURG PIKE,39.928571,-83.053842
HAR142S,1421 HARRISBURG PIKE,39.929104,-83.053192
OAKHAME,OAKLAND PARK AVE & HAMILTON AVE,40.031912,-82.977745
OAKONTE,OAKLAND PARK AVE & ONTARIO ST,40.031792,-82.97521
OAKNORE,OAKLAND PARK AVE & NORWOOD ST,40.031637,-82.972157
OAKOAKE,OAKLAND PARK AVE & OAKLAWN ST,40.031454,-82.968596
SAIBUCS,SAINT CLAIR AVE & BUCKINGHAM ST,39.972672,-82.980824
SAI4THN,SAINT CLAIR AVE & GIBBARD AVE,39.984356,-82.979818
5THCLEW,E 5TH AVE & CLEVELAND AVE,39.986452,-82.989151
5THFIEW,E 5TH AVE & FIELDS AVE,39.986614,-82.991823
5TH6THW,E 5TH AVE & N 6TH ST,39.986838,-82.997081
CHANOEW,CHATTERTON RD & NOE BIXBY RD,39.91559,-82.862569
5THHIGHE,W 5TH AVE & N HIGH ST,39.987066,-83.005755
5THGRAE,E 5TH AVE & N GRANT AVE,39.986673,-82.996511
5THCLEE,E 5TH AVE & CLEVELAND AVE,39.986331,-82.988647
SAI2NDS,SAINT CLAIR AVE & E 2ND AVE,39.981553,-82.980157
SAIOLDS,SAINT CLAIR AVE & LEONARD AVE,39.974951,-82.980643
CLEORMN,CLEVELAND AVE & ORMOND AVE,40.047157,-82.955806
NORNORTN,NORTHWEST BLVD & NORTHAM RD,40.011664,-83.057797
NORKINGS,NORTHWEST BLVD & KING AVE,39.991197,-83.040784
KINDELE,KING AVE & DELASHMUT AVE,39.991003,-83.030254
KINOLEE,KING AVE & OLENTANGY RIVER RD,39.990867,-83.027099
DIEWENS,DIERKER RD & WENDYS DR,40.058192,-83.075342
KENMANS,KENNY RD & MANSION WAY,40.02655,-83.045732
HARREDS,HARRISBURG PIKE & RED ROCK BLVD,39.913785,-83.066953
12THIGW,W 12TH AVE & N HIGH ST,39.996922,-83.008195
HAMREFN,S HAMILTON RD & REFUGEE RD,39.915923,-82.880432
KINOLEW,KING AVE & OLENTANGY RIVER RD,39.990966,-83.026604
KINOPPW1,KING AVE & DELASHMUT AVE,39.991092,-83.030078
TRAWILW,TRABUE RD & N WILSON RD,39.987386,-83.108143
NOREXIW,W NORTH BROADWAY & RIVERSIDE EXIT,40.029556,-83.035658
NORCHAN,NORTH STAR RD & CHAMBERS RD,39.99423,-83.048658
MAILAMW,E MAIN ST & LAMBY LN,39.956,-82.892226
BRYRHOE,BRYDEN RD & RHOADS AVE,39.959994,-82.948789
HIGFITN,N HIGH ST & FITZ HENRY BLVD,40.066362,-83.01918
CLEBRON,CLEVELAND AVE & BROOKLYN RD,40.061654,-82.952729
LIVBERE,E LIVINGSTON AVE & BERKLEY RD,39.948967,-82.956645
PARHILS,PARSONS AVE & HILOCK AVE,39.897205,-82.986577
HAMMOUS,S HAMILTON RD & E MOUND ST,39.951529,-82.877422
HAMMELS,S HAMILTON RD & MELROY AVE,39.948646,-82.87764
HAMLIVS,S HAMILTON RD & E LIVINGSTON AVE,39.944242,-82.877993
HAMGROS,S HAMILTON RD & GROVES RD,39.929848,-82.879451
HAMKIMS,S HAMILTON RD & KIMBERLY PKWY,39.926142,-82.879774
HAMMACS,S HAMILTON RD & MACSWAY AVE,39.923247,-82.880068
MACHAMW,MACSWAY AVE & S HAMILTON RD,39.923631,-82.880426
HAMKINN,S HAMILTON RD & KINGSLAND AVE,39.926128,-82.879515
HAMGRON,S HAMILTON RD & GROVES RD,39.930529,-82.879078
HAMDUNN,S HAMILTON RD & DUNDEE AVE,39.941246,-82.878095
HAMLIVN,S HAMILTON RD & E LIVINGSTON AVE,39.945156,-82.877667
HAMMAIN,S HAMILTON RD & E MAIN ST,39.955184,-82.876833
HAMWRIN,S HAMILTON RD & WRIGHT AVE,39.9577,-82.876493
HAMLANN,S HAMILTON RD & LANGLEY AVE,39.96002,-82.876287
INNDERW,INNIS RD & DERBYSHIRE DR,40.037304,-82.958725
PERAGLS,PERDUE AVE & AGLER RD,40.026689,-82.951921
REFNOEE,REFUGEE RD & NOE BIXBY RD,39.915153,-82.863982
HIG18TS,N HIGH ST & E 18TH AVE,40.002899,-83.008719
MORSANE,MORSE RD & SANDY LANE RD,40.061272,-82.992833
MORMAIE,MORSE RD & MAIZE RD,40.061013,-82.986769
MORALME,MORSE RD & ALMONT DR,40.060778,-82.983057
KARMORN,KARL RD & MORSE RD,40.06126,-82.977202
KARREDN,KARL RD & RED ROBIN RD,40.064991,-82.976928
KARNORMN,KARL RD & NORMA RD,40.068183,-82.976667
KARPENN,KARL RD & PENWORTH DR,40.071646,-82.97639
KARSANN,KARL RD & SANDALWOOD PL,40.077317,-82.975903
KAR161N,KARL RD & STATE ROUTE 161,40.088,-82.975155
KAR602N,6024 KARL RD,40.090261,-82.975397
KARALPN,KARL RD & ALPINE DR,40.092967,-82.975454
KARCRAN,KARL RD & CRANWOOD DR,40.099423,-82.975073
KARBARN,KARL RD & BARNES DR E,40.103573,-82.974606
KARBARS,KARL RD & BARNES DR E,40.103294,-82.974768
KARCRAS,KARL RD & CRANWOOD DR,40.0988,-82.975495
KAR634S,6347 KARL RD,40.096763,-82.976003
KARALPS,KARL RD & ALPINE DR,40.092926,-82.975571
KAR161S,KARL RD & STATE ROUTE 161,40.087952,-82.975345
KAR161S1,KARL RD & STATE ROUTE 161,40.085939,-82.975489
KARHEMS,KARL RD & HEMPWOOD DR,40.084476,-82.975594
KARSANS,KARL RD & SANDALWOOD PL,40.07728,-82.976126
KARNORMS,KARL RD & NORMA RD,40.068485,-82.976856
KARACRS,KARL RD & RED ROBIN RD,40.064932,-82.977113
KARPATS,KARL RD & PATIO AVE,40.061543,-82.977411
MORALMW,MORSE RD & ALMONT DR,40.061067,-82.983249
MORMAIW,MORSE RD & MAIZE RD,40.061326,-82.987732
MORKINW,MORSE RD & KINGSHILL DR,40.061435,-82.990308
CLEREPS,CLEVELAND AVE & REPUBLIC AVE,40.015588,-82.966281
LIVBRIW,E LIVINGSTON AVE & BRICE RD,39.942184,-82.830486
GRORIDS,GROVE CITY PARK AND RIDE,39.878253,-83.06401
BRONORE,W BROAD ST & NORTON RD,39.951666,-83.138929
SULCOUE,SULLIVANT AVE & COUNTRYBROOK DR E,39.938988,-83.116127
LIVLATE,E LIVINGSTON AVE & LATTIMER DR,39.9441,-82.867046
5THSAIE,E 5TH AVE & SAINT CLAIR AVE,39.985953,-82.978946
5TH20TE,E 5TH AVE & N 20TH ST,39.985649,-82.971713
5TH23RE,E 5TH AVE & N 23RD ST,39.985526,-82.967786
JOY17TN,JOYCE AVE & E 17TH AVE,40.000223,-82.965291
JOY177N,1770 JOYCE AVE,40.003421,-82.96432
JOY23RN,JOYCE AVE & E 23RD AVE,40.005509,-82.963676
JOY26TN,JOYCE AVE & E 26TH AVE,40.00782,-82.962956
JOYBLAN,JOYCE AVE & E BLAKE AVE,40.010403,-82.962166
JOY178S,1782 JOYCE AVE,40.003306,-82.964503
JOYWINS,JOYCE AVE & WINDSOR AVE,39.995901,-82.966026
5THJOYW,E 5TH AVE & JOYCE AVE,39.985668,-82.967549
5TH20TW,E 5TH AVE & N 20TH ST,39.985848,-82.972558
HIGRICN,S HIGH ST & E RICH ST,39.957314,-82.999596
HIGSTANN,S HIGH ST & E STATE ST,39.959836,-83.000015
HIGNATN,N HIGH ST & E NATIONWIDE BLVD,39.968227,-83.001755
HIGOHIN,N HIGH ST & OHIO CENTER WAY,39.96987,-83.002013
HIGSPRUN,N HIGH ST & SPRUCE ST,39.972747,-83.002579
HIGSWANS,N HIGH ST & SWAN ST,39.973099,-83.00285
LIVQUAE,E LIVINGSTON AVE & QUARRY RIDGE DR,39.942963,-82.841065
HIGNATS,N HIGH ST & W NATIONWIDE BLVD,39.968182,-83.001838
HIGLONS,N HIGH ST & W LONG ST,39.965157,-83.001322
MAIMAIW,E MAIN ST & MAIN 270 CENTER,39.954861,-82.835096
HIGTOWS,S HIGH ST & W TOWN ST,39.958095,-82.999953
HIGMOUS,S HIGH ST & W MOUND ST,39.954153,-82.999185
LIVSARW,E LIVINGSTON AVE & SARANAC DR,39.942456,-82.835749
3RDGAYS,N 3RD ST & E GAY ST,39.964722,-82.998503
3RDBROS1,S 3RD ST & E BROAD ST,39.962082,-82.997991
3RDTOWS,S 3RD ST & E TOWN ST,39.958674,-82.997335
CLE585N,CLEVELAND AVE & ABBOTT LABS,39.975217,-82.989927
3RDMAIS,S 3RD ST & E MAIN ST,39.95584,-82.996795
FROBRON,N FRONT ST & W BROAD ST,39.962652,-83.002424
MCK1600W,MCKINLEY ADMIN OFFICE,39.964561,-83.044936
MCKPARK,MCKINLEY PARK,39.963709,-83.040637
MCKCENE,MCKINLEY AVE & N CENTRAL AVE,39.963603,-83.03873
COUCLAS,COURTRIGHT RD & CLARKSTON AVE,39.923168,-82.898913
COUCLAN,COURTRIGHT RD & CLARKSTON AVE,39.923092,-82.898721
MCKYALE,MCKINLEY AVE & N YALE AVE,39.96334,-83.033499
MCKCYPE,MCKINLEY AVE & N CYPRESS AVE,39.963119,-83.028993
BROHIGE1,E BROAD ST & S HIGH ST,39.962204,-83.000208
BRO3RDE,E BROAD ST & S 3RD ST,39.962453,-82.997482
BRO4THE,E BROAD ST & S 4TH ST,39.962579,-82.996409
BRO5THE,E BROAD ST & S 5TH ST,39.962871,-82.994446
BROGRAE,E BROAD ST & S GRANT AVE,39.963174,-82.991252
BROWASAE,E BROAD ST & S WASHINGTON AVE,39.963682,-82.987431
BROJEFE,E BROAD ST & JEFFERSON AVE,39.963913,-82.984857
BROPARSE,E BROAD ST & PARSONS AVE,39.964363,-82.981014
MCK851E,851 MCKINLEY AVE,39.962878,-83.024381
BROGRAW,E BROAD ST & N GRANT AVE,39.963383,-82.991516
BRO5THW,E BROAD ST & N 5TH ST,39.963089,-82.994028
BRO3RDW,E BROAD ST & N 3RD ST,39.962689,-82.997563
BROHIGHW,E BROAD ST & N HIGH ST,39.962468,-82.999458
BROMARW,W BROAD ST & MARCONI BLVD,39.962007,-83.003631
BROANSW,W BROAD ST & ANSON ST,39.960763,-83.013235
BROSKIW,W BROAD ST & N SKIDMORE ST,39.96035,-83.016586
MCK856W,856 MCKINLEY AVE,39.962993,-83.024164
LONHIGE,W LONG ST & N HIGH ST,39.964795,-83.001709
LON4THE,E LONG ST & N 4TH ST,39.965307,-82.996985
LONNORE,E LONG ST & NORMANDY AVE,39.965764,-82.99353
LONCLEE,E LONG ST & CLEVELAND AVE,39.966084,-82.990772
LONWASE,E LONG ST & N WASHINGTON AVE,39.966483,-82.987293
LONJEFE,E LONG ST & JEFFERSON AVE,39.966783,-82.984528
MCKCYPW,MCKINLEY AVE & N CYPRESS AVE,39.963195,-83.028714
5THBASE,E 5TH AVE & BASSETT AVE,39.985293,-82.962888
SNOLAUW,SNOUFFER RD & LAUREN PL,40.103511,-83.048993
SPRMOUW,E SPRING ST & MOUNT VERNON AVE,39.968109,-82.987701
SPRCLEW,E SPRING ST & CLEVELAND AVE,39.967569,-82.990368
SPRGRAW,E SPRING ST & N GRANT AVE,39.967229,-82.992254
SPRNEIW,E SPRING ST & NEILSTON ST,39.966955,-82.99467
3RDSPRS,N 3RD ST & E SPRING ST,39.96602,-82.998744
5THPKWW,E 5TH AVE & PARKWOOD AVE,39.985273,-82.95834
SPRMARW,W SPRING ST & MARCONI BLVD,39.965987,-83.004625
KIMKIME,KIMBERLY PKWY N & KIMBERLY PKWY E,39.926017,-82.883674
HILCABS,HILLIARD ROME RD & CABOT COVE DR,39.998258,-83.153192
HILCOVN,HILLIARD ROME RD & CABOT COVE DR,39.998648,-83.152958
NELOPPN1,NELSON RD & MILLBROOK WAY,39.974052,-82.947352
5THBASW,E 5TH AVE & BASSETT AVE,39.985486,-82.963369
MCKYALW,MCKINLEY AVE & N YALE AVE,39.963424,-83.033408
MCKCENW,MCKINLEY AVE & N CENTRAL AVE,39.963715,-83.038607
MCKTRAW,MCKINLEY AVE & MCK TRANSPORTATION,39.964312,-83.041421
CLEELMN,CLEVELAND AVE & ELMORE AVE,40.040115,-82.9612
HIGERIS,N HIGH ST & ERIE RD,40.038073,-83.017682
OLE2825N,2825 OLENTANGY RIVER RD,40.018477,-83.023723
HIGWORN,N HIGH ST & WORTHINGTON GALENA RD,40.096349,-83.01748
LIV3RDE,E LIVINGSTON AVE & S 3RD ST,39.952724,-82.996294
RENHILW,RENNER RD & HILLIARD ROME RD,39.981368,-83.149655
TRARASE,TRABUE RD & RASPBERRY RUN DR,39.986605,-83.109943
NEI8THS,NEIL AVE & W 8TH AVE,39.99231,-83.014154
MOUHIGW3,W MOUND ST & S HIGH ST,39.95483,-82.999545
EWMHARN,EDWARD WEAVER MEMORIAL & HARLEY DR,40.020472,-83.024937
KIMBERE,KIMBERLY PKWY N & PETZINGER RD,39.924622,-82.889983
TAYWESBN,TAYLOR STATION RD & WESTBOURNE AVE,39.983618,-82.843119
CLEMORCN,CLEVELAND AVE & MORSE CREEK DR,40.052497,-82.953444
BROCONEW,W BROAD ST & BROADLAWN AVE,39.953922,-83.098061
BROVIOW,W BROAD ST & VIOTIS DR,39.9537,-83.102286
BRO4158W,4158 W BROAD ST,39.953242,-83.111634
GEOSULN,GEORGESVILLE RD & SULLIVANT AVE,39.941719,-83.111901
BROWESWE,W BROAD ST & WESTWOOD BLVD,39.951375,-83.145425
TAYOPPN,TAYLOR STATION RD & BELLTOWNE BLVD,39.985846,-82.842949
BROGEOE,W BROAD ST & GEORGESVILLE RD,39.953112,-83.109579
BRO386E,3865 W BROAD ST,39.953436,-83.103439
BRO3953E,3953 W BROAD ST,39.953242,-83.107147
BROBROLE,W BROAD ST & BROADLAWN AVE,39.953711,-83.097541
BROWILRE,W BROAD ST & S WILSON RD,39.95387,-83.094105
BROSOUTE,W BROAD ST & S SOUTHAMPTON AVE,39.954167,-83.08801
FREFREE,FREBIS AVE & FREBIS LN,39.933682,-82.947036
MAICOUW,E MAIN ST & COUNTRY CLUB RD,39.955284,-82.867728
MAISHAW,E MAIN ST & SHADY LANE RD,39.955376,-82.871096
OBE145E,145 OBETZ RD,39.881812,-82.992466
HIGDERN,S HIGH ST & DERING AVE,39.912721,-82.995249
1ST1STW,1ST COMMUNITY VILLAGE,39.991406,-83.066205
LONHAMW,E LONG ST & HAMILTON AVE,39.967298,-82.981414
NELMILS,N NELSON RD & MILLBROOK WAY,39.974056,-82.947493
GREWOOWA,GREENWAY AVE & GREENWAY LOOP,39.974053,-82.955907
TAYLONN,TAYLOR AVE & E LONG ST,39.969116,-82.961496
MAIESTE,E MAIN ST & ESTATES LN,39.955407,-82.791887
GOLHILW,GOLDSMITH DR & HILTON DR,39.957746,-82.782274
CARMAIS,CARLYLE DR & E MAIN ST,39.956018,-82.784105
MAIESTW,E MAIN ST & ESTATES LN,39.955591,-82.791025
MAIWAGW,E MAIN ST & WAGGONER RD,39.955475,-82.796211
HAMDUNS,S HAMILTON RD & DUNDEE AVE,39.941691,-82.878255
HAMHARS,S HAMILTON RD & HARBOR BLVD,39.903819,-82.881765
HAMHARN,S HAMILTON RD & HARBOR BLVD,39.904035,-82.881496
COUDESN,COURTRIGHT RD & E DESHLER AVE,39.936833,-82.897596
JAMANAN,N JAMES RD & ANAWANDA AVE,39.975177,-82.9132
STEJAMN,STELZER RD & N JAMES RD,39.980285,-82.913096
OLEBURN,OLENTANGY RIVER RD & BURNBRAE AVE,40.014478,-83.022271
JAMANNS,N JAMES RD & ANAWANDA AVE,39.974593,-82.913461
HAMBRON,N HAMILTON RD & E BROAD ST,39.976673,-82.873838
HAMPOTN,N HAMILTON RD & POTH RD,39.980548,-82.872665
HAMWOON,N HAMILTON RD & WOODCLIFF DR,39.983549,-82.869882
HAMAIRN,N HAMILTON RD & SAWYER RD,39.995506,-82.868389
AGLGAHW,AGLER RD & GAHANNA PARK AND RIDE,40.019508,-82.892732
AGLLINCW,AGLER RD & LINCOLNSHIRE RD,40.019837,-82.900108
STYGAMS,N STYGLER RD & GAMEWOOD DR,40.029679,-82.889763
STYCHAS,N STYGLER RD & CHAPELFIELD RD,40.026454,-82.890041
STYDUNS,N STYGLER RD & DUNCHURCH RD,40.022423,-82.890392
HAMROCSS,N HAMILTON RD & ROCKY FORK DR S,40.009737,-82.867384
HAMSAWS,N HAMILTON RD & SAWYER RD,39.994746,-82.868721
HAMWOOS,N HAMILTON RD & WOODCLIFF DR,39.983696,-82.870059
HAMPOTS,N HAMILTON RD & POTH RD,39.98063,-82.872839
SNOBRIW,SNOUFFER RD & BRIDE WATER BLVD,40.103705,-83.05774
SNOOPPW,SNOUFFER RD & DONAHUE CT,40.103798,-83.061407
SMOQUEN,SMOKY ROW RD & QUEENSBRIDGE DR,40.108732,-83.065063
SMOHARN,SMOKY ROW RD & HARD RD,40.117773,-83.067226
SMOSUTN,SMOKY ROW RD & SUTTER PKWY,40.120295,-83.06786
SMOPLAN,SMOKY ROW RD & PLAINS BLVD,40.125997,-83.06919
SMOSTON,SMOKY ROW RD & STOWBRIDGE RD,40.129024,-83.069842
SMOSMOE,SMOKY VIEW BLVD & SMOKY ROW RD,40.135729,-83.071906
SMOSUMS,SMOKY ROW RD & SUMMIT ROW BLVD,40.133622,-83.070966
BRO344W,3440 W BROAD ST,39.954114,-83.092574
BROENTW,W BROAD ST & RHODES PARK,39.956296,-83.050394
BRO425W,4250 W BROAD ST,39.953065,-83.115235
BROJEFW,E BROAD ST & JEFFERSON AVE,39.964224,-82.984176
BROPARLW,E BROAD ST & PARKLAWN BLVD,39.975286,-82.882993
BRO424W,4244 E BROAD ST,39.974744,-82.888164
5THKRUE,E 5TH AVE & KRUMM AVE,39.984585,-82.917844
OLE3420N,3420 OLENTANGY RIVER RD,40.029275,-83.029277
GREPARE,GREENWAY AVE & PARKWOOD AVE,39.97411,-82.958774
GREELDW,GREENWAY AVE & ELDRIDGE AVE,39.974154,-82.958261
OSB5THN,OSBORN AVE & E 5TH AVE,39.985071,-82.912528
SHASKYN,SHARON WOODS BLVD & SKYWAE DR,40.095503,-82.964824
NOROLEE,W NORTH BROADWAY & OLENTANGY RIVER RD,40.030904,-83.029716
12T221W,221 W 12TH AVE,39.996943,-83.013476
NORINDE,E N BROADWAY & INDIANOLA AVE,40.031273,-83.001409
EISNORN,EISENHOWER RD & E NORTH BROADWAY,40.031148,-82.993531
OAKEISE,OAKLAND PARK AVE & EISENHOWER RD,40.032637,-82.993264
OLERIVN,OLENTANGY RIVER RD & RIVERVIEW,40.024336,-83.025947
BRO476E,4765 W BROAD ST,39.952182,-83.128109
CASCASS,N CASSADY AVE & CASSADY VILLAGE TRL,40.016791,-82.929021
CASDEMS,N CASSADY AVE & DEMONYE DR,39.997804,-82.930314
REFWINE,REFUGEE RD & WINCHESTER PIKE,39.917311,-82.914606
JAMRUHS,N JAMES RD & RUHL AVE,39.977807,-82.913131
RUHVIRW,RUHL AVE & N VIRGINIA LEE RD,39.977895,-82.917664
RUHCHEW,RUHL AVE & N CHESTERFIELD RD,39.977981,-82.920031
RUHGOUW,RUHL AVE & N GOULD RD,39.978106,-82.922419
CLEINNN,CLEVELAND AVE & INNIS RD,40.037125,-82.96246
MORDUNW,MORSE RD & DUNBRIDGE ST,40.058673,-82.931978
TAYBELS,TAYLOR STATION RD & BELLTOWNE BLVD,39.98623,-82.843119
TAYWESS,TAYLOR STATION RD & WESTBOURNE AVE,39.984278,-82.84329
COUDESS,COURTRIGHT RD & E DESHLER AVE,39.936435,-82.897786
SULWESW,SULLIVANT AVE & S WESTGATE AVE,39.943327,-83.081979
SULSOUW,SULLIVANT AVE & S SOUTHAMPTON AVE,39.943083,-83.087518
FIECOTS,1333 FIELDS AVE,39.990472,-82.992125
FIE5THS,FIELDS AVE & E 5TH AVE,39.986901,-82.992121
TOWHARW,W TOWN ST & S HARTFORD AVE,39.956041,-83.022777
TOWHAWW,W TOWN ST & HAWKES AVE,39.955768,-83.025346
TOWDAKW,W TOWN ST & DAKOTA AVE,39.955452,-83.027833
TOWYALW,W TOWN ST & S YALE AVE,39.955021,-83.031476
TOWPRIW,W TOWN ST & S PRINCETON AVE,39.954696,-83.034217
TOWBREW,W TOWN ST & BREHL AVE,39.954424,-83.036507
CENRICS,S CENTRAL AVE & W RICH ST,39.95294,-83.037259
CENSULS,S CENTRAL AVE & SULLIVANT AVE,39.950999,-83.036864
CENUNIS,S CENTRAL AVE & UNION AVE,39.947833,-83.036209
CENTHON,S CENTRAL AVE & THOMAS,39.947664,-83.036027
CENSULN,S CENTRAL AVE & SULLIVANT AVE,39.950258,-83.036556
CENRICN,S CENTRAL AVE & W RICH ST,39.953327,-83.037201
TOWBREE,W TOWN ST & BREHL AVE,39.954356,-83.036073
TOWPRIE,W TOWN ST & S PRINCETON AVE,39.954639,-83.033758
TOWYALE,W TOWN ST & S YALE AVE,39.954968,-83.031011
TOWCYPE,W TOWN ST & S CYPRESS AVE,39.955284,-83.02837
TOWHAWE,W TOWN ST & HAWKES AVE,39.955616,-83.025364
TOWSOUE,W TOWN ST & S SOUDER AVE,39.955973,-83.022401
TOWDAVE,W TOWN ST & S DAVIS AVE,39.95613,-83.021096
BROWESTE,W BROAD ST & WESTLAND MALL,39.95276,-83.114984
NEL520N,520 N NELSON RD,39.97924,-82.944547
NELOPPS,520 N NELSON RD,39.979215,-82.944718
SULSYLE,SULLIVANT AVE & S SYLVAN AVE,39.943021,-83.08633
REDROCW,RED ROBIN RD & ROCKCASTLE DR,40.065115,-82.97316
NORKINSE,NORTHWEST BLVD & KINGS CT,39.994966,-83.045176
REDTAMW,RED ROBIN RD & TAMARACK BLVD,40.064977,-82.970481
HENZELW,W HENDERSON RD & ZELLER RD,40.051666,-83.024449
HENOLEBW,W HENDERSON RD & OLENTANGY BLVD,40.051793,-83.02712
HENLAUW,W HENDERSON RD & LAURALAND DR E,40.052222,-83.038011
GOOOPPE,582 W GOODALE ST,39.974112,-83.018946
HILROBS,HILLIARD ROME RD & ROBERTS RD,40.003302,-83.153985
HILNIKS,HILLIARD ROME RD & NIKE DR,39.994499,-83.152596
TAM463N,4630 TAMARACK BLVD,40.062269,-82.97084
11TPEAE,E 11TH AVE & N PEARL ST,39.99467,-83.005896
11TGRAE,E 11TH AVE & N GRANT AVE,39.994197,-82.995413
11TDAUE,E 11TH AVE & DAUGHERTY AVE,39.994113,-82.992912
17TCLEW,E 17TH AVE & CLEVELAND AVE,40.000425,-82.976122
INDWEIS,INDIANOLA AVE & E WEISHEIMER RD,40.054574,-83.000412
INDMIDS,INDIANOLA AVE & MIDGARD RD,40.027339,-83.001454
PARINDS,PARSONS AVE & INDIAN MOUND PARK,39.882429,-82.987749
OBEBETAW,OBETZ RD & BETH ANN DR,39.882049,-82.994486
OBESOUW,OBETZ RD & SOUTHPOINT BLVD,39.882139,-82.998271
OBESOUE,OBETZ RD & SOUTHPOINT BLVD,39.882082,-82.9985
PAROBEN,PARSONS AVE & OBETZ RD,39.882113,-82.98762
PARHARN,PARSONS AVE & HARLAND DR,39.884694,-82.987468
PARASHN,PARSONS AVE & ASHWOOD RD,39.887904,-82.987172
LOCBUCS,LOCKBOURNE RD & BUCKEYE PARK RD,39.918919,-82.965769
WEIHOUS,WEIRTON DR & HOUSTON DR,39.902412,-82.952461
WEISOUW,WEIRTON DR & SOUTHFIELD DR S,39.9003,-82.952685
VENSOUW,VENICE DR & SOUTHFIELD DR E,39.897759,-82.953235
KOE113W,KOEBEL RD & LOCKBOURNE RD,39.912652,-82.965193
LOC230N,2300 LOCKBOURNE RD,39.91735,-82.965736
LOCREFN,LOCKBOURNE RD & REFUGEE RD,39.919457,-82.965542
4THSPRN,N 4TH ST & E SPRING ST,39.966599,-82.996889
HANWASE,HANFORD ST & S WASHINGTON AVE,39.936351,-82.985677
MAIMOON,MAIZE RD & MOON RD,40.039137,-82.988989
LIVMCNW,E LIVINGSTON AVE & MCNAUGHTEN RD,39.942626,-82.838039
KARELMN,KARL RD & ELMORE AVE,40.042256,-82.977285
KARCOON,KARL RD & E COOKE RD,40.045422,-82.976996
KARSHAN,KARL RD & SHANLEY DR,40.055749,-82.976162
KARELMS,KARL RD & ELMORE AVE,40.042689,-82.97738
HENOLEE,W HENDERSON RD & OLENTANGY RIVER RD,40.051865,-83.033128
CLE13TS,CLEVELAND AVE & E 13TH AVE,39.996692,-82.978646
HENOLEW,W HENDERSON RD & OLENTANGY RIVER RD,40.052075,-83.034505
11TDAUW,E 11TH AVE & DAUGHERTY AVE,39.994239,-82.993052
MYRWOOW,MYRTLE AVE & WOODLAND AVE,40.01649,-82.950503
MYRWOOE,MYRTLE AVE & WOODLAND AVE,40.016425,-82.950475
PER272N,2722 PERDUE AVE,40.024241,-82.951937
PERAGLN,PERDUE AVE & AGLER RD,40.026464,-82.951748
PER271S,2717 PERDUE AVE,40.02422,-82.952085
PERDENN,PERDUE AVE & DENUNE AVE,40.021879,-82.952105
PERDENS,PERDUE AVE & DENUNE AVE,40.022238,-82.95223
PERABEN,PERDUE AVE & ABERDEEN AVE,40.020208,-82.95222
PERMINS,PERDUE AVE & MINNESOTA AVE,40.019489,-82.952423
EARPERE,EARL AVE & PERDUE AVE,40.017215,-82.952046
EARPERW,EARL AVE & PERDUE AVE,40.017386,-82.952326
HENLAUE,W HENDERSON RD & LAURALAND DR E,40.051997,-83.037476
HENOLEBE,W HENDERSON RD & OLENTANGY BLVD,40.051672,-83.027566
HENZELE,W HENDERSON RD & ZELLER RD,40.051559,-83.024877
STRRAXE,2071 STRINGTOWN RD,39.878458,-83.058371
REFEASW,REFUGEE RD & EASTLAND MALL,39.916011,-82.887277
COUKIMNN,COURTRIGHT RD & KIMBERLY PKWY N,39.92154,-82.896862
COUOAKN,COURTRIGHT RD & OAKCREST RD,39.924797,-82.898696
COURIVN,COURTRIGHT RD & RIVERDALE SQ,39.928721,-82.898328
TRAMAPW,TRABUE RD & MAPLEWAY DR,39.992438,-83.093307
AGLBRIE,AGLER RD & BRIDGEWALK ST,40.026657,-82.944966
AGLBRIWW,AGLER RD & BRIDGEWALK ST,40.026751,-82.944826
AGLWOOE,AGLER RD & WOODLAND AVE,40.026857,-82.950146
AGLWOOW,AGLER RD & WOODLAND AVE,40.026949,-82.949753
JOYBLIN,JOYCE AVE & BLISS ST,39.982773,-82.966932
OBE300W,300 OBETZ RD,39.881786,-82.98905
OBE145W,145 OBETZ RD,39.881862,-82.991812
OBEBETE,OBETZ RD & BETH ANN DR,39.88188,-82.994238
OBE300E,300 OBETZ RD,39.881684,-82.989052
JAMASTN,S JAMES RD & ASTOR AVE,39.951413,-82.915201
JAMMOUN,S JAMES RD & E MOUND ST,39.954269,-82.914934
JAMMAIN,S JAMES RD & E MAIN ST,39.957123,-82.91468
JAMFAIN,S JAMES RD & FAIR AVE,39.961503,-82.914271
JAMDALN,S JAMES RD & DALE AVE,39.964159,-82.914042
JAMELBN,S JAMES RD & ELBERN AVE,39.968148,-82.913691
JAMBRON,N JAMES RD & E BROAD ST,39.97251,-82.913411
JAMBROS,S JAMES RD & E BROAD ST,39.971594,-82.913594
JAMELBS,S JAMES RD & ELBERN AVE,39.967678,-82.913955
JAMDALS,S JAMES RD & DALE AVE,39.963673,-82.914306
JAMFAIS,S JAMES RD & FAIR AVE,39.960917,-82.914546
JAMMAIS,S JAMES RD & E MAIN ST,39.956809,-82.91488
JAMMOUS,S JAMES RD & E MOUND ST,39.95381,-82.915138
MORHIGE,MORSE RD & N HIGH ST,40.062364,-83.018857
KARCOOS1,KARL RD & E COOKE RD,40.045865,-82.977153
JAMASTS,S JAMES RD & ASTOR AVE,39.951837,-82.915322
JAMBROS1,S JAMES RD & BROWNLEE AVE,39.94844,-82.915648
COURIVS,COURTRIGHT RD & RIVERDALE SQ,39.928895,-82.898465
COUOAKS,COURTRIGHT RD & OAKCREST RD,39.924833,-82.898862
FROSYCN,S FRONT ST & W SYCAMORE ST,39.949203,-82.999826
JOYHUDS,JOYCE AVE & E HUDSON ST,40.012798,-82.96157
JOYBLAS,JOYCE AVE & E BLAKE AVE,40.010185,-82.962398
JOY26TS,JOYCE AVE & E 26TH AVE,40.007701,-82.963158
JOY23RS,JOYCE AVE & E 23RD AVE,40.005325,-82.963891
LOC244S,2441 LOCKBOURNE RD,39.914442,-82.966127
LOC245N,2452 LOCKBOURNE RD,39.914035,-82.965982
MCGHUDS,MCGUFFEY RD & E HUDSON ST,40.013916,-82.981472
JOYGIBS,JOYCE & GIBBARD,39.983219,-82.967039
HARBRON,HARRISBURG PIKE & BROWN RD,39.944244,-83.036762
PARCOLN,PARSONS AVE & E COLUMBUS ST,39.946535,-82.982703
NOROLEW,W NORTH BROADWAY & OLENTANGY RIV RD,40.03081,-83.030394
5THHIGHW,W 5TH AVE & N HIGH ST,39.987184,-83.005867
JOY17TS,JOYCE AVE & E 17TH AVE,40.000188,-82.965468
COUPETN,COURTRIGHT RD & PETZINGER RD,39.927003,-82.898497
COUPETS,COURTRIGHT RD & PETZINGER RD,39.927416,-82.898606
HAM18TS,HAMILTON AVE & E 18TH AVE,40.001937,-82.979916
17THAME,E 17TH AVE & HAMILTON AVE,40.000452,-82.979485
MORSANW,MORSE RD & SANDY LANE RD,40.061545,-82.992936
GODCHEW,GODOWN RD & CHEVIOT DR,40.060216,-83.050996
OLERIDN,OLENTANGY RIVER RD & BETHEL RD,40.061674,-83.036467
CRORIDN,CROSSWOODS PARK AND RIDE,40.116962,-83.006137
BROSYLW,W BROAD ST & N SYLVAN AVE,39.954392,-83.087357
BROPHIW,W BROAD ST & PHILLIPI RD,39.953322,-83.109153
LIVALUW,E LIVINGSTON AVE & ALUM CREEK DR,39.948562,-82.945938
LIV18TW,E LIVINGSTON AVE & S 18TH ST,39.950827,-82.977497
GODCAMN,GODOWN RD & CAMBRIAN DR,40.06201,-83.054974
MAIALUE,E MAIN ST & ALUM CREEK DR,39.957238,-82.944004
MAIHOLW,E MAIN ST & HOLTZMAN AVE,39.957441,-82.945385
REDSONW,RED ROBIN RD & SONG BIRD DR,40.065274,-82.976114
WHI18TE,E WHITTIER ST & S 18TH ST,39.943866,-82.978239
HIGHOSN,S HIGH ST & E HOSTER ST,39.950956,-82.998356
COUGROS,COURTRIGHT RD & GROVES RD,39.93097,-82.898218
SULWILW,SULLIVANT AVE & N WILSON RD,39.942763,-83.093953
SULWEDW,SULLIVANT AVE & WEDGEWOOD DR,39.942565,-83.098054
SUL385W,3850 SULLIVANT AVE,39.942407,-83.100828
SULATLW,SULLIVANT AVE & ATLANTA DR,39.942108,-83.107083
SULGEOW,SULLIVANT AVE & GEORGESVILLE RD,39.941935,-83.110631
SULATLE,SULLIVANT AVE & ATLANTA DR,39.941932,-83.107561
SULHOLE,SULLIVANT AVE & HOLLY HILL DR,39.942231,-83.101634
SULWEDE,SULLIVANT AVE & WEDGEWOOD DR,39.942464,-83.097056
SULKINE,SULLIVANT AVE & KINGSFORD RD,39.942613,-83.093718
CLEBREN,CLEVELAND AVE & BRETTON WOODS DR,40.068527,-82.952181
CLEEDMS,CLEVELAND AVE & EDMONTON RD,40.069004,-82.952376
SULDERE,SULLIVANT AVE & DERRER RD,39.942754,-83.090993
DEMCLIS,DEMOREST RD & CLIME RD,39.928357,-83.090465
RICSOUS,RICHARD AVE & SOUTHWEST BLVD,39.891039,-83.080435
SOUSHEW,SOUTHWEST BLVD & SHELDON PL,39.890599,-83.083696
SOUBROW,SOUTHWEST BLVD & BROADWAY,39.89098,-83.085663
SOUSHEE,SOUTHWEST BLVD & SHELDON PL,39.890489,-83.083333
HAMEASN,S HAMILTON RD & EASTLAND DR,39.921032,-82.879975
RIC5THW,E RICH ST & S 5TH ST,39.958296,-82.993242
SULDEMW,SULLIVANT AVE & DEMOREST RD,39.942956,-83.090016
BRICHAS,BRICE RD & CHANNINGWAY BLVD,39.938103,-82.830374
SCAALSE,SCARBOROUGH BLVD & ALSHIRE RD,39.929032,-82.834382
BRIEASN,BRICE RD & EASTGREEN BLVD,39.938801,-82.83007
ZOLTREW,ZOLLINGER RD & TREMONT RD,40.01908,-83.062538
NELMARN,N NELSON RD & MARYLAND AVE,39.9768,-82.946131
NELMARYS,N NELSON RD & MARYLAND AVE,39.977521,-82.945952
REDTAME,RED ROBIN RD & TAMARACK BLVD,40.064857,-82.970394
REDROCE,RED ROBIN RD & ROCKCASTLE DR,40.064963,-82.973018
REDKARE,RED ROBIN RD & KARL RD,40.065134,-82.976033
KARCOLN,KARL RD & COLUMBUS PUBLIC LIBRARY,40.080998,-82.975616
TAM464S,4645 TAMARACK BLVD,40.062295,-82.970973
MOCWOOE,MOCK RD & WOODLAND AVE,40.01161,-82.953701
BETDIEW,BETHEL RD & DIERKER RD,40.064425,-83.075519
PICGARN,PICKFORDE DR & GARDENIA DR,40.066441,-83.086375
RESSAWW,RESLER DR & SAWMILL RD,40.067995,-83.091608
SMOHAMS,SMOKY ROW RD & HAMROCK DR,40.131554,-83.070507
CAMVANW,E CAMPUS VIEW BLVD & VANTAGE DR,40.11836,-83.013361
KARMORS,KARL RD & MORSE RD,40.060052,-82.977529
EASOFFW,EASTGREEN BLVD & OFFICEVIEW PL,39.938459,-82.829
BRILIVN,BRICE RD & LIVINGSTON AVE,39.942569,-82.829743
BRICENN,BRICE RD & CENTURY CITY S,39.944681,-82.829547
BRIROSLN,BRICE RD & ROSELAWN AVE,39.946419,-82.82939
BRIRYGN,BRICE RD & RYGATE DR,39.95038,-82.829014
BRICMN,BRICE RD & MAIN ST,39.9531,-82.828767
BRI132S,1324 BRICE RD,39.95337,-82.828925
BRIRYGS,BRICE RD & RYGATE DR,39.949844,-82.829261
BRIROSLS,BRICE RD & ROSELAWN AVE,39.946344,-82.829583
BRIASTS,BRICE RD & ASTOR AVE,39.944199,-82.829789
PARELSS,PARSONS AVE & ELSMERE ST,39.949385,-82.982646
HIGOHIS,N HIGH ST & OHIO CENTER WAY,39.970186,-83.002323
PARTHUS,PARSONS AVE & THURMAN AVE,39.939348,-82.983429
MACKIME,MACSWAY AVE & KIMBERLY PKWY,39.923657,-82.883382
RESSAWE,RESLER DR & SAWMILL RD,40.067851,-83.091564
PICBETS,PICKFORDE DR & BETHEL RD,40.065959,-83.086596
BETDIEE,BETHEL RD & DIERKER RD,40.064184,-83.07436
BETCOAW,BETHEL RD & COACHMAN RD,40.064626,-83.0817
BETWOOE,BETHEL RD & WOOD RUN BLVD,40.064408,-83.080785
TRABENW,TRABUE RD & BENDELOW DR,39.989514,-83.10183
TRABENE,TRABUE RD & BENDELOW DR,39.989346,-83.101894
9THMEDCW,W 9TH AVE & MEDICAL CTR DR,39.993397,-83.01672
NORLANNN,NORTHWEST BLVD & W LANE AVE,40.006998,-83.058049
SMOSTOS,SMOKY ROW RD & STOWBRIDGE RD,40.128688,-83.069918
SMOOLDS,SMOKY ROW RD & OLDE SAWMILL BLVD,40.125151,-83.069115
SMOSUTS,SMOKY ROW RD & SUTTER PKWY,40.119724,-83.067871
SMOHARS,SMOKY ROW RD & HARD RD,40.116944,-83.067235
SMOQUES,SMOKY ROW RD & QUEENSBRIDGE DR,40.108592,-83.065135
SMOSTPS,SMOKY ROW & ST PETERS PARK AND RIDE,40.106871,-83.064732
SNODONE,SNOUFFER RD & DONAHUE CT,40.103717,-83.061671
SNOSNOE,SNOUFFER RD & SNOUFFER PL,40.103632,-83.057765
SNOHICE,SNOUFFER RD & HICKORY GROVE CT,40.103383,-83.048988
LINCOLS,LINWORTH RD & COLLINS DR,40.09876,-83.047877
HILRIDS,HILLIARD PARK AND RIDE,40.031393,-83.131162
MORHAME,MORRISON RD & N HAMILTON RD,40.009453,-82.866397
TREKEYN,3120 TREMONT RD,40.02397,-83.058442
MORTRIE,MORSE RD & TRINDEL WAY,40.058211,-82.92645
MORTRIW,MORSE RD & TRINDEL WAY,40.05843,-82.926756
VAN741S,VANTAGE DR & HUTCHINSON AVE,40.114354,-83.014786
CAMCROW,E CAMPUS VIEW BLVD & CROSSWOODS DR,40.118589,-83.010072
TRA465E,4659 TRABUE RD,39.984596,-83.122001
TRAARLE,TRABUE RD & ARLINGATE LN,39.985887,-83.11316
TRAARLW,TRABUE RD & ARLINGATE LN,39.986026,-83.113031
5THNORE,E 5TH AVE & NORTHVIEW AVE,39.98517,-82.933824
GRE375S,3755 GREAT SOUTHERN SVC RD,39.885607,-83.002326
MORKARW1,MORSE RD & KARL RD,40.060803,-82.979133
MOC2315E,2315 MOCK RD,40.011357,-82.947195
BROSCHOW,E BROAD ST & SCHOFIELD DR,39.975563,-82.880312
HARLITTN,HARRISBURG PIKE & LITTLE AVE,39.930328,-83.050566
CAS5THN,N CASSADY AVE & E 5TH AVE,39.98585,-82.93132
EASHAMN,EASTLAND NB LOT & S HAMILTON RD,39.918601,-82.880661
SMOHAMN,SMOKY ROW RD & HAMROCK DR,40.131278,-83.070322
FRA161N,FRANTZ RD & W BRIDGE ST,40.098424,-83.124576
FRANORNW,FRANTZ RD & NORTHBRIDGE PLAZA,40.069855,-83.118355
FRABALN,FRANTZ RD & BALLYMEAD BLVD,40.072765,-83.121249
FRABREN,FRANTZ RD & BRELSFORD LN,40.075528,-83.122044
FRA602S,6025 FRANTZ RD,40.090672,-83.124315
FRABRES,FRANTZ RD & BRELSFORD LN,40.074616,-83.122067
FRAKEAS,FRANTZ RD & KEATING DR,40.07012,-83.119711
FRAMCGSE,FRANTZ RD & MCGRATH DR,40.069464,-83.116489
HAMPRON,S HAMILTON RD & PROFESSIONAL PKWY,39.893573,-82.882531
HAMBAYN,S HAMILTON RD & HAMILTON SQUARE BLVD,39.895754,-82.882322
HAMWINN,S HAMILTON RD & WINCHESTER PIKE,39.900438,-82.88191
HAMWINS,S HAMILTON RD & WINCHESTER PIKE,39.899183,-82.882289
HAMBAYS,S HAMILTON RD & HAMILTON SQUARE BLVD,39.894648,-82.882685
HAMPROS,S HAMILTON RD & PROFESSIONAL PKWY,39.89318,-82.882815
STE6THS,STELZER RD & E 6TH AVE,39.98583,-82.914308
COUGRON,COURTRIGHT RD & GROVES RD,39.930993,-82.898131
KARPENS,KARL RD & PENWORTH DR,40.072048,-82.976542
KARCOOKS,KARL RD & NORTHLAND SR VILLAGE,40.048711,-82.976933
INTSAWW,INTERNATIONAL GATEWAY & SAWYER RD,39.998709,-82.892765
PORGRON,CMH AIRPORT BAGGAGE CLAIM,39.998638,-82.885054
INTSAWE,INTERNATIONAL GATEWAY & SAWYER RD,39.99837,-82.893888
STE11TS,STELZER RD & E 11TH AVE,39.989904,-82.913984
CLENORPN,CLEVELAND AVE & NORTHLAND PLAZA,40.081651,-82.951206
GREKROS,GREAT SOUTHERN KROGER,39.887744,-83.001423
GEOBROS,GEORGESVILLE RD & W BROAD ST,39.952057,-83.110496
BLA515E,5151 BLAZER PKWY,40.08974,-83.130613
BLA505E,5050 BLAZER PKWY,40.088194,-83.126033
FRAMONN,FRANTZ RD & MONTEREY DR,40.090523,-83.123954
SCH99BE,99 W SCHROCK RD,40.109767,-82.928078
SCHOPPW,90 W SCHROCK RD,40.10993,-82.928127
HAMREFS,S HAMILTON RD & REFUGEE RD,39.915912,-82.880762
SOUSCON,N SOUDER AVE & SCOTT ST,39.961191,-83.022694
SOUSCOS,N SOUDER AVE & SCOTT ST,39.961058,-83.022784
BROTAYE,E BROAD ST & TAYLOR STATION RD,39.979316,-82.843016
MOUHARE,W MOUND ST & HARRISBURG PIKE,39.945983,-83.034566
SAIOPPN,SAINT CLAIR AVE & E 2ND AVE,39.981265,-82.980059
SAIGIBS,SAINT CLAIR AVE & GIBBARD AVE,39.984342,-82.979941
JOY5THN,JOYCE AVE & E 5TH AVE,39.986054,-82.966744
JOY5THS,JOYCE AVE & 5TH AVE,39.986508,-82.966837
SULEXCW,SULLIVANT AVE & EXCHANGE DR,39.942291,-83.103337
GEOPARN,GEORGESVILLE & PARKWICK DR,39.927122,-83.116773
BROHARTW,W BROAD ST & N HARTFORD AVE,39.959431,-83.024263
FISPARS,FISHINGER BLVD & PARK MILL RUN DR,40.031289,-83.116169
FIS369S,3693 FISHINGER BLVD,40.02901,-83.117207
FISMILE,FISHINGER BLVD & MILL RUN DR,40.026242,-83.113856
RIVNOTS,RIVERSIDE DR & NOTTINGHAM RD,40.026313,-83.091374
FIS365N,3650 FISHINGER BLVD,40.029862,-83.11648
FISRIDN,FISHINGER BLVD & RIDGE MILL DR,40.031639,-83.115913
WESRIDW,WESTWOODS PARK AND RIDE,39.950679,-83.147342
CEMLEAW,CEMETERY RD & LEAP RD,40.031766,-83.14053
CEMOUTW,CEMETERY RD & OUTER ST,40.031366,-83.144558
JOYDEWS,JOYCE AVE & DEWEY AVE,39.99279,-82.966294
JOYDEWN,JOYCE AVE & DEWEY AVE,39.992779,-82.96617
CEMNORE,CEMETERY RD & NORWICH ST,40.030437,-83.152298
CEMNORW,CEMETERY RD & NORWICH ST,40.030404,-83.153864
SMOSWAS,SMOKY ROW RD & SWANSFORD DR,40.123212,-83.068674
SMOSWAN,SMOKY ROW RD & SWANSFORD DR,40.123365,-83.068609
SMOSTPRN,SMOKY ROW & ST PETERS PARK AND RIDE,40.106616,-83.064563
TAYMARN,TAYLOR AVE & MARYLAND AVE,39.977827,-82.960811
FROBLEN,S FRONT ST & W BLENKNER ST,39.951628,-83.000292
GEOLINS,GEORGESVILLE RD & LINCOLN PARK CT,39.946271,-83.111373
GEOINDS,GEORGESVILLE RD & INDUSTRIAL MILE,39.943696,-83.111775
GEOSULS,GEORGESVILLE RD & SULLIVANT AVE,39.940407,-83.112254
SMOBILS,SMOKY ROW RD & BILLINGSLEY RD,40.111636,-83.065901
SMOWATN,SMOKY ROW RD & WATERTOWER DR,40.11214,-83.065864
BETMCKW,BETHEL RD & MCKITRICK BLVD,40.064282,-83.07086
BETBETW,BETHEL RD & BETHEL PARK DR,40.064509,-83.078202
BETOLGE,BETHEL RD & OLGATE LN,40.064068,-83.070427
BETHEDE,BETHEL RD & HEDGEROW RD,40.0643,-83.077475
HILWHIS,HILLIARD ROME & WHISPERING OAK BLVD,40.008084,-83.153752
HILWHIN,HILLIARD ROME & WHISPERING OAK BLVD,40.008433,-83.153488
BROREYW,E BROAD ST & REYNOLDSBURG NEW ALBANY,39.982754,-82.81513
FISDUBW,FISHINGER RD & DUBLIN RD,40.028429,-83.103496
FISSMIW,FISHINGER BLVD & SMILEY RD,40.027603,-83.110514
FISMILN,FISHINGER BLVD & MILL RUN DR,40.026482,-83.114106
FISSMIE,FISHINGER BLVD & SMILEY RD,40.027708,-83.108774
FISDUBE,FISHINGER RD & DUBLIN RD,40.028266,-83.103415
LEOTAYE,LEONARD AVE & OSU CAREPOINT EAST,39.979117,-82.962875
MCNSISS,MCNAUGHTEN RD & GANSE LN,39.977514,-82.836494
HIGHIGN,S HIGH ST & HIGHVIEW BLVD,39.889322,-82.997525
HIGHIGS,S HIGH ST & HIGHVIEW BLVD,39.889249,-82.997887
CAS150N,1500 N CASSADY AVE,40.001006,-82.929897
CASHUDN,N CASSADY AVE & E HUDSON ST,40.011529,-82.929252
STEAGLN,STELZER RD & AGLER RD,40.021136,-82.911126
STEMCCN,STELZER RD & MCCUTCHEON RD,40.033894,-82.910007
STEMONN,STELZER RD & MONTCLAIR DR,40.040487,-82.909405
STECOLN,STELZER RD & COLLIERY AVE,40.052184,-82.908782
MORAPPW,MORSE RD & APPIAN WAY,40.057015,-82.898129
CASHUDS,N CASSADY AVE & E HUDSON ST,40.011981,-82.929327
CAS150S,1500 N CASSADY AVE,40.00104,-82.930085
STEMONS,STELZER RD & MONTCLAIR DR,40.040505,-82.909683
STEMCCS,STELZER RD & MCCUTCHEON RD,40.033929,-82.91024
ALLOPPE,3096 ALLEGHENY AVE,39.980637,-82.919713
STE750N,750 STELZER RD,39.987091,-82.913915
STEOPPN,STELZER RD & E 11TH AVE,39.990018,-82.913654
LIN161S,LINWORTH RD & STATE ROUTE 161,40.089889,-83.049602
LINSEDS,LINWORTH RD & SEDGWICK RD,40.083259,-83.049785
LINROCS,LINWORTH RD & ROCKY RILL RD,40.077807,-83.047575
LINSHAS,LINWORTH RD & SHARON HILL DR,40.067718,-83.040342
OLEBETS1,OLENTANGY RIVER RD & BETHEL RD,40.061522,-83.036568
CASDEMN,N CASSADY AVE & DEMONYE DR,39.998003,-82.93009
RIVNOTN,RIVERSIDE DR & NOTTINGHAM RD,40.026338,-83.091064
5TH4569E,4569 E 5TH AVE,39.986662,-82.873755
5TH480W,4800 E 5TH AVE,39.986802,-82.873383
5THHAMSW,E 5TH AVE & N HAMILTON RD,39.989626,-82.869349
5THYEAE,E 5TH AVE & N YEARLING RD,39.987201,-82.885529
5THYEAW,E 5TH AVE & N YEARLING RD,39.987498,-82.886905
HAM5THN,N HAMILTON RD & E 5TH AVE,39.989803,-82.868796
CLECLYS,CLEVELAND AVE & CLYBOURNE RD,40.062073,-82.952929
STEGOVS,STELZER RD & GOVERNORS CLUB BLVD,40.029426,-82.910709
STEMIDN,STELZER RD & MIDDLEMORE DR,40.030025,-82.910419
FRA161S,FRANTZ RD & W BRIDGE ST,40.098426,-83.124882
BRIHIRS,BRITTON PKWY & HIRTH RD,40.07285,-83.138995
TUTLAZE,TUTTLE MALL AT MACYS,40.073317,-83.132788
12T153E,153 W 12TH AVE - HALE HALL,39.996733,-83.011432
NEI11TN,NEIL AVE & W 11TH AVE,39.99593,-83.014648
BETREEW,BETHEL RD & REED RD,40.064207,-83.067336
BETPORW,BETHEL RD & PORTLAND ST,40.064002,-83.062532
SCHPARW,W SCHROCK RD & PARK MEADOW RD,40.110341,-82.936513
SCHCOOE,W SCHROCK RD & COOPER RD,40.110478,-82.942238
SCHPARE,W SCHROCK RD & PARK MEADOW RD,40.110182,-82.936561
SCHCOOW,W SCHROCK RD & COOPER RD,40.110707,-82.943175
EMEGLES,EMERALD PKWY & GLENDON CT,40.080646,-83.1415
EMETUTS,EMERALD PKWY & TUTTLE CROSSING BLVD,40.076154,-83.140619
EMESTEN,EMERALD PKWY & STERLING COMMERCE,40.076199,-83.14037
EMEGLEN,EMERALD PKWY & GLENDON CT,40.080668,-83.14131
MAIWILE,E MAIN ST & WILSON AVE,39.95772,-82.967026
BETREEE,BETHEL RD & REED RD,40.06389,-83.06603
BETPORE,BETHEL RD & PORTLAND ST,40.063794,-83.061802
BETGODW,BETHEL RD & GODOWN RD,40.06384,-83.057486
MOR340W,3400 MORSE CROSSING,40.043205,-82.916877
MOR342S,3425 MORSE CROSSING,40.04621,-82.919985
MORHARS,MORSE CROSSING & R E HARRINGTON,40.043054,-82.916962
MEDCCW,MEDICAL CENTER DR & CANNON DR,39.992386,-83.019577
BROFRA2E,E BROAD ST & FRANKLIN PARK CON,39.967398,-82.954506
BROBRUNW,E BROAD ST & BRUNSON AVE,39.967682,-82.953683
HAY3011E,3011 HAYDEN RD,40.066688,-83.098068
HAY311E,3111 HAYDEN RD,40.068055,-83.102121
MAIVALE,E MAIN ST & VALUE CITY,39.954663,-82.834727
HAY316W,3166 HAYDEN RD,40.068191,-83.102219
HAYDONW,HAYDEN RD & DONNYLANE BLVD,40.067005,-83.098095
MORWATSE,MORRISON RD & WATERBURY CT,40.008192,-82.864954
5THRUNW,W 5TH AVE & RUNAWAY BAY DR,39.986987,-83.072503
5THSEAPW,W 5TH AVE & SEAPORT,39.985583,-83.07378
MCK3235N,3235 MCKINLEY AVE,39.993112,-83.082883
TRA511W,5110 TRABUE RD,39.98254,-83.134894
TRA510E,5101 TRABUE RD,39.982445,-83.134736
TRAHAGE,TRABUE RD & N HAGUE AVE,39.992584,-83.092508
GANOHIN,GANTZ RD W & OHIO DR,39.881067,-83.055828
GANBRON,GANTZ RD & BROOKHAM DR,39.886163,-83.056516
CLE161NF,CLEVELAND AVE & STATE ROUTE 161,40.085968,-82.950868
CLE161NN,CLEVELAND AVE & STATE ROUTE 161,40.084696,-82.950961
SOUGANE,SOUTHPARK PL & GANTZ RD,39.890863,-83.055808
SOU340N,SOUTHPARK PL FIRST STOP,39.891922,-83.050922
SOU335W,SOUTHPARK PL THIRD STOP,39.893026,-83.051772
SOUGANW,SOUTHPARK PL & GANTZ RD,39.890962,-83.055842
GANBROS,GANTZ RD W & BROOKHAM DR,39.885752,-83.056477
GANOHIS,GANTZ RD & OHIO DR,39.880965,-83.05603
AGL343E,3433 AGLER RD,40.020615,-82.919016
AGL343W,3433 AGLER RD,40.020704,-82.919055
PORLONS,PORT RD & LONDON GROVEPORT RD,39.830519,-82.925183
HILSPRN,HILLIARD ROME RD & SPRINGDALE BLVD,40.013624,-83.153195
HILHYDS,HILLIARD ROME RD & HYDE PARK DR,40.013549,-83.153443
HIGGAYN,N HIGH ST & E LONG ST,39.964424,-83.00096
NEIBRON,NEIL AVE & BROADBELT LN,39.969147,-83.009364
COLOHUN,S COLLEGE RD & W 12TH AVE,39.997906,-83.009612
MORCHEE,MORSE RD & CHESFORD RD,40.059045,-82.944845
MORCLEE,MORSE RD & CLEVELAND AVE,40.059393,-82.952195
MORHEAW,MORSE RD & HEATON RD,40.060322,-82.968003
MORMALW,MORSE RD & MALIN ST,40.059962,-82.958103
MORMALE,MORSE RD & MALIN ST,40.059715,-82.957275
MORMOXW,MORSE RD & MORSE CROSSING,40.058154,-82.919168
MORSUNBW,MORSE RD & SUNBURY RD,40.058219,-82.923189
MORSUNBE,MORSE RD & SUNBURY RD,40.057942,-82.922409
MORTAMW,MORSE RD & TAMARACK BLVD,40.060484,-82.971495
MORWALE,MORSE RD & WALFORD ST,40.059899,-82.961226
MORWESW,MORSE RD & WESTERVILLE RD,40.058983,-82.938146
MOR170W,1700 MORSE RD,40.060593,-82.974714
MORTAME,MORSE RD & TAMARACK BLVD,40.06024,-82.970285
MORCLEW,MORSE RD & CLEVELAND AVE,40.059717,-82.954673
MORWESE,MORSE RD & WESTERVILLE RD,40.058652,-82.936647
MOROPPW,MORSE RD & CHESFORD RD,40.05925,-82.94511
MORSTEE,MORSE CROSSING & STELZER RD,40.042278,-82.910301
MORSTEW,MORSE CROSSING & STELZER RD,40.042478,-82.91016
HIGCARS,N HIGH ST & CAREN AVE,40.105398,-83.017174
JAMALLS,N JAMES RD & ALLEGHENY AVE,39.979693,-82.91321
HIG9THN,N HIGH ST & E 9TH AVE,39.993254,-83.006599
TRAWILE,TRABUE RD & N WILSON RD,39.987673,-83.106681
5THLAKE,W 5TH AVE & LAKE SHORE DR,39.987996,-83.069881
5THRUN1E,W 5TH AVE & SEAPORT DR,39.985588,-83.073518
5THRUN2E,W 5TH AVE & RUNAWAY BAY DR,39.986544,-83.07257
MEDC9THN,MEDICAL CENTER DR & W 9TH AVE,39.993081,-83.017244
MEDCCE,MEDICAL CENTER DR & CANNON DR,39.992279,-83.019341
5THEDGW,W 5TH AVE & EDGEHILL RD,39.988102,-83.029458
WESP&RW,WESTERVILLE PARK AND RIDE,40.125772,-82.94396
HAMBROS,S HAMILTON RD & BROADHURST DR,39.968017,-82.875806
MAIROBE1,E MAIN ST & ROBINWOOD AVE,39.955968,-82.896828
MAILAME,E MAIN ST & LAMBY LN,39.955843,-82.892227
BROOLDE,W BROAD ST & OLD VILLAGE RD,39.952383,-83.123943
MAIMORN1,MAIZE RD & MORSE RD,40.059809,-82.987309
CSCCWB,MOUNT VERNON AVE & COLUMBUS STATE,39.968972,-82.989054
KENRUES,KENNY RD & RUE DE FLEUR,40.0309,-83.049521
4THATHN,N 4TH ST & E GAY ST,39.963816,-82.99634
ALU1900N,1900 ALUM CREEK DR,39.930405,-82.940176
CLEAGLN,CLEVELAND AVE & AGLER RD,40.027318,-82.964267
CLE555S,5555 CLEVELAND AVE,40.081544,-82.951447
CLEGLES,CLEVELAND AVE & GLENGROVE LN,40.064107,-82.952757
HIGSCHVS,S HIGH ST & SCHRYVER RD,39.903748,-82.995459
HIGSOUWN,S HIGH ST & SOUTHWOOD AVE,39.932755,-82.995814
NORCALW,NORTH BROADWAY & CALUMET ST,40.031504,-83.008452
NORCALE,NORTH BROADWAY & CALUMET ST,40.031408,-83.008564
NOR169E,169 E NORTH BROADWAY,40.031447,-83.010737
NOR162W,162 E NORTH BROADWAY,40.03155,-83.011221
NOR411E,411 E NORTH BROADWAY,40.031314,-83.004264
FIE1330N,1330 FIELDS AVE,39.989435,-82.991682
FIEMOBDS,FIELDS AVE & MOBILITY DR,39.988516,-82.991908
NOR366W,366 E NORTH BROADWAY,40.031413,-83.003938
LIVMAYE,E LIVINGSTON AVE & MAYFIELD PL,39.94815,-82.941161
MOC250E,2501 MOCK RD,40.011177,-82.943109
MOC2501W,2501 MOCK RD,40.011272,-82.943124
BRIHIRN,BRITTON PKWY & HIRTH RD,40.072994,-83.138915
BROHAMPE,E BROAD ST & S HAMPTON RD,39.972326,-82.909773
STEOPPS,STELZER RD & CODET RD,40.025331,-82.911042
STECODN,STELZER RD & CODET RD,40.025449,-82.910804
AGLCLUW,AGLER RD & CLUB HOUSE DR,40.026649,-82.94011
AGLCLUE,AGLER RD & CLUB HOUSE DR,40.026549,-82.940097
GREWALS,GREAT SOUTHERN WAL-MART,39.8891,-83.000805
ZOLNORW3,ZOLLINGER RD & NORTHWEST BLVD,40.018859,-83.057862
TUTBRAE,TUTTLE CROSSING & BRADENTON AVE,40.076398,-83.129248
TUTFRAW,TUTTLE CROSSING BLVD & FRANTZ RD,40.077408,-83.123723
TUTFRAE,TUTTLE CROSSING BLVD & FRANTZ RD,40.077181,-83.123793
MORSTYW,MORSE RD & N STYGLER RD,40.056697,-82.890741
DISNEWE,DISCOVER CARD LOOP & NEW ALBANY RD,40.100476,-82.815371
PULPOLS,PULSAR PL & POLARIS PKWY,40.141668,-82.966911
POLORIW,POLARIS PKWY & ORION PL,40.142756,-82.96668
POL131E,1319 POLARIS PKWY,40.141234,-82.984434
POL148E,1481 POLARIS PKWY,40.141094,-82.97974
MORMORS,MORSE CROSSING & MORSE RD,40.056601,-82.918469
WILSOLS,WILSON RD & SOLDANO BLVD,39.956742,-83.093985
INNBOYE,INNIS RD & BOYLESTON BLVD,40.037034,-82.947846
BROOUTE,E BROAD ST & OUTERBELT ST,39.980726,-82.830875
BROOUTW,E BROAD ST & OUTERBELT ST,39.980967,-82.83092
INNWESE,INNIS RD & WESTERVILLE RD,40.037035,-82.95374
ALUALUN,ALUM CREEK DR & ALUM INDUSTRIAL DR N,39.940747,-82.943402
ALU1900S,1900 ALUM CREEK DR,39.930737,-82.940583
FRONATS,N FRONT ST & NATIONWIDE BLVD,39.968414,-83.003767
AIRDEPNE,AIRPORT TERMINAL DEPARTING FLIGHTS,39.99871,-82.884546
NATFROE,W NATIONWIDE BLVD & N FRONT ST,39.968776,-83.003012
FROSPRN,N FRONT ST & W SPRING ST,39.966812,-83.00324
VINPARW,VINE ST & N PARK ST,39.971554,-83.005175
VINFROE,VINE ST & N FRONT ST,39.971478,-83.005192
SOU34FN,SOUTHPARK PL SECOND STOP,39.893993,-83.050829
INNKOHW,INNIS RD & KOHR BLVD,40.037096,-82.94768
OLEARGN,OLENTANGY RIVER RD & ARGYLL ST,40.012481,-83.02198
OLEARGS,OLENTANGY RIVER RD & ARGYLL ST,40.011504,-83.022319
220OLEN,2200 OLENTANGY RIVER RD,40.009742,-83.022347
MAIOAKW,E MAIN ST & OAK VALLEY RD,39.955741,-82.787475
MAIOAKE1,E MAIN ST & OAK VALLEY RD,39.955503,-82.787467
NEI10TN,NEIL AVE & W 10TH AVE,39.994154,-83.014294
AGLCORW,AGLER RD & CORBAN COMMONS DR,40.020835,-82.921897
RIVHOSW,RIVERSIDE HOSPITAL,40.032262,-83.032227
HIGMOUN,S HIGH ST & E MOUND ST,39.954211,-82.998989
HIGROYN1,N HIGH ST & E ROYAL FOREST BLVD,40.060876,-83.019475
BROMCNE,E BROAD ST & MCNAUGHTEN RD,39.98035,-82.834628
BROMCNW,E BROAD ST & MCNAUGHTEN RD,39.980267,-82.837114
BROWASAW,E BROAD ST & N WASHINGTON AVE,39.963836,-82.987493
MCKQUAN,MCKINLEY AVE & QUARRY LAKE DR,39.990193,-83.080048
MCKQUAS,MCKINLEY AVE & QUARRY LAKE DR,39.989921,-83.080028
BROCENS,BROADWAY & CENTRAL AVE,39.897543,-83.080847
FROTOWN,S FRONT ST & W TOWN ST,39.958888,-83.001709
ALU102S,1025 ALUM CREEK DR,39.946639,-82.9451
ALUALUS,ALUM CREEK DR & ALUM INDUSTRIAL DR N,39.940678,-82.943606
ALUINTS,ALUM CREEK DR & INTEGRITY DR N,39.936867,-82.942405
ALUINTN,ALUM CREEK DR & INTEGRITY DR N,39.936942,-82.942191
ALU102N,1025 ALUM CREEK DR,39.94682,-82.944918
ALUPAYN,ALUM CREEK DR & PAYNE AVE,39.954995,-82.944259
GRERIDE,GREAT SOUTHERN PARK AND RIDE,39.885041,-83.00094
5TH4THW,E 5TH AVE & N 4TH ST,39.98695,-82.9999
5TH4THE,E 5TH AVE & N 4TH ST,39.986818,-82.998994
FROMOUN,S FRONT ST & W MOUND ST,39.955367,-83.000998
5THLAKW,W 5TH AVE & LAKE SHORE DR,39.988424,-83.069506
TRAWESW,TRABUE RD & WESTBELT DR,39.984516,-83.123363
5THNEIE,W 5TH AVE & NEIL AVE,39.987365,-83.013501
CLECOON,S CLEVELAND AVE & COOPER RD,40.120612,-82.948366
TECMORW,TECHCENTER DR & MORRISON RD,40.000256,-82.856797
TECMORE,TECHCENTER DR & MORRISON RD,40.000199,-82.85662
GEO106N,1060 GEORGESVILLE RD,39.931142,-83.115846
GEOCLIS,GEORGESVILLE RD & CLIME RD,39.932358,-83.115765
GEOHALS,GEORGESVILLE RD & HALL RD,39.929345,-83.116753
GEOHALN,GEORGESVILLE RD & HALL RD,39.929542,-83.116394
GEOPARS,GEORGESVILLE RD & PARKWICK DR,39.927144,-83.117009
5TH470W,4700 E 5TH AVE,39.987104,-82.879156
5TH470E,4700 E 5TH AVE,39.986866,-82.879034
MORGOLE,MORSE RD & GOLDENGATE SQ N,40.059274,-82.94954
HIGBRONN,S HIGH ST & E BROAD ST,39.961687,-83.000479
MORTAYNW,MORRISON RD & TAYLOR RD,40.003532,-82.861858
MORTAYSE,MORRISON RD & TAYLOR RD,40.003116,-82.861522
JOY12TN,JOYCE AVE & E 12TH AVE,39.995179,-82.965969
CHASTEN,S CHAMPION AVE & STEWART AVE,39.940766,-82.9707
MORNORW,MORSE RD & NORTHTOWNE BLVD,40.060172,-82.962705
HUDSILW,E HUDSON ST & SILVER DR,40.01502,-82.995884
HUDSILE,E HUDSON ST & SILVER DR,40.014855,-82.996318
CLE3RDS,CLEVELAND AVE & E 3RD AVE,39.983897,-82.989429
HUN733N,7330 HUNTINGTON PARK DR,40.114384,-83.006167
4THLINN,N 4TH ST & LINCOLN ST,39.97673,-82.997999
SULCLAE,SULLIVANT AVE & CLARENDON AVE,39.946339,-83.058191
MCK133E,1335 MCKINLEY AVE,39.963467,-83.03654
EASMORE,EASTON WAY & MORSE CROSSING,40.048447,-82.919669
HILTINAN,HILLIARD ROME RD & TINAPPLE RD,40.017099,-83.156972
BROBROW1,E BROAD ST & BROAD POINTE PL,39.982079,-82.821064
BROBLAE,E BROAD ST & BLACKLICK XING,39.982279,-82.817147
GODBETS,GODOWN RD & BETHEL RD,40.06278,-83.056846
MOR177E,1778 MORSE RD,40.060287,-82.973583
MOR415S,4155 MORSE CROSSING,40.05513,-82.918584
MORGRAS,MORSE CROSSING & EASTON MARKET,40.050883,-82.920136
EASMORW,EASTON WAY & MORSE CROSSING,40.048866,-82.920651
COOSCHN,COOPER RD & SCHROCK RD,40.111271,-82.942799
SCHLAUW,W SCHROCK RD & LAUFFER RD,40.110941,-82.946131
HILTINS,HILLIARD ROME RD & TINAPPLE RD,40.016932,-83.157119
PBLAZACW,PAUL BLAZER PKWY & ASHLAND CHEMICAL,40.089413,-83.132032
BLA505W1,5050 BLAZER PKWY,40.088318,-83.126155
LEOCHAE,LEONARD AVE & N CHAMPION AVE,39.978738,-82.967765
LEOCHAW,LEONARD AVE & N CHAMPION AVE,39.978836,-82.968013
SAWBETN,SAWMILL RD & BETHEL RD,40.066004,-83.093052
SAWBETS,SAWMILL RD & BETHEL RD,40.065968,-83.09337
LINMEES,LINWORTH RD & MEEKLYNN DR,40.074818,-83.044599
MCK132W,1320 MCKINLEY AVE,39.963576,-83.036278
ARL5THN,ARLINGTON AVE & W 5TH AVE,39.989308,-83.060029
NORCHAWF,NORTHWEST BLVD & CHAMBERS RD,39.994101,-83.042972
HARHUMSW,HARRISBURG PIKE & HUMPHREY AVE,39.943125,-83.037886
NORWILLS,NORTHWEST BLVD & WILLIAMS AVE,39.977998,-83.030169
MAIBLES,MAIZE RD & BLENHEIM RD,40.042095,-82.988884
MCGDUXS,MCGUFFEY RD & DUXBERRY AVE,40.00949,-82.981785
HUDFIOE,E HUDSON ST & FIONA LN,40.013209,-82.957596
BROBROAE,E BROAD ST & BROAD POINTE PL,39.982024,-82.819895
MOREASN1,MORSE CROSSING & EASTON WAY,40.049515,-82.919931
HIGRATS,N HIGH ST & W RATHBONE AVE,40.062802,-83.019602
MOR2560W,2560 MORSE RD,40.059505,-82.950853
MOR2700W,2700 MORSE RD,40.05938,-82.947611
BROMHIGW,BROAD MEADOWS BLVD & N HIGH ST,40.073025,-83.020533
BRO200W,200 BROAD MEADOWS BLVD,40.07416,-83.02439
HIGBROMS,HIGHFIELD DR & BROAD MEADOWS BLVD,40.07373,-83.027797
BROMHIGE,BROAD MEADOWS BLVD & N HIGH ST,40.072936,-83.0205
HOLMAIS,HOLTZMAN AVE & E MAIN ST,39.957549,-82.945724
CANJOHNS,CANNON DR & JOHN H HERRICK DR,39.999447,-83.022436
NEISPRUS,NEIL AVE & SPRUCE ST,39.972797,-83.009653
STE418N,4180 STELZER RD,40.059618,-82.910166
STELSAMS,STELZER RD AT SAMS CLUB,40.059455,-82.910449
MORAPPE1,MORSE RD & APPIAN WAY,40.056872,-82.897223
MORSTYE1,MORSE RD & N STYGLER RD,40.056542,-82.890139
MORCHEE1,MORSE RD & CHERRY BOTTOM RD,40.056223,-82.886066
MORSTONE,MORSE RD & STONERIDGE DR,40.055342,-82.866635
HAMCHEN,N HAMILTON RD & CHESTNUT HILL DR,40.056779,-82.863478
HAMMEIN,HAMILTON RD & MEIJERS ENTRANCE,40.059938,-82.863312
HAMBROS1,N HAMILTON RD & BROADVIEW RD,40.057716,-82.86362
MORKOHW,MORSE RD & KOHLS ENTRANCE,40.055547,-82.865961
MORCHEW,MORSE RD & CHERRY BOTTOM RD,40.056455,-82.886456
SCHCLEE,W SCHROCK RD & CLEVELAND AVE,40.110718,-82.947829
SAISVCOP,ST ANNS W SVC RD & COPELAND MILL RD,40.112803,-82.946992
NATNATS,NATIONWIDE SVE RD & NATIONWIDE EXIT,40.080302,-83.134244
5THLOCW,W 5TH AVE & LOWER CHELSEA RD,39.989651,-83.063816
MEIHAM2S,MEIJER HAMILTON RD & CHESTNUT HILL,40.059547,-82.862242
FROSYCS,S FRONT ST & SYCAMORE ST,39.94863,-82.99991
STELIFS,STELZER RD & LIFESTYLE BLVD,40.023452,-82.911204
STELIFN,STELZER RD & LIFESTYLE BLVD,40.023644,-82.910946
AGLASPE,AGLER RD & ASHPOINT ST,40.020352,-82.913733
AGLASPW,AGLER RD & ASHPOINT ST,40.020513,-82.914431
SULEVGW,SULLIVANT AVE & EVERGREEN TERRACE,39.942115,-83.133638
SULEVGE,SULLIVANT AVE & EVERGREEN TERRACE,39.941878,-83.132807
SULINAE,SULLIVANT AVE & INAH AVE,39.942834,-83.137978
SULINAW,SULLIVANT AVE & INAH AVE,39.943024,-83.138614
SULWESW1,SULLIVANT AVE & WESTWOODS BLVD,39.94459,-83.147187
CHEHIGE,E CHESTNUT ST & N HIGH ST,39.967613,-83.001056
CLEWALN,CLEVELAND AVE & WALLCREST BLVD,40.072682,-82.951851
CLEWALS,CLEVELAND AVE & WALLCREST BLVD,40.072082,-82.952139
SMOSBS,SMOKY ROW RD & SAWBURY BLVD,40.114449,-83.066578
SMOGARN,SMOKY ROW RD & GARDENSTONE DR,40.114582,-83.066484
OLE2825S,2825 OLENTANGY RIVER RD,40.018712,-83.024156
POLLYRW,POLARIS PKWY & LYRA DR,40.141672,-82.97751
POLMAEW2,POLARIS PKWY & POLARIS MALL 2,40.141848,-82.98566
COPSCHS,COOPER RD & SCHROCK RD,40.111213,-82.942931
MOR342N,3425 MORSE CROSSING,40.046428,-82.919838
MOR2975E,2975 MORSE RD,40.058887,-82.941095
MORINDE,MORSE RD & INDIANOLA AVE,40.06162,-83.000754
MOUCLAW,MOUND ST & CLARENDON AVE,39.940321,-83.056244
HARCENPS,HARRISBURG PIKE & CENTERPOINT DR,39.905732,-83.074672
BROWAGE,E BROAD ST & WAGGONER RD,39.985209,-82.790515
BROMIEE,E BROAD ST & MEIJER DR,39.985729,-82.785807
BROMIEW,E BROAD ST & MEIJER DR,39.985861,-82.786867
BROWAGW,E BROAD ST & WAGGONER RD,39.985334,-82.791785
BROLTDE,E BROAD ST & LIMITED STOP 1,39.984845,-82.771797
CHANBRIW,CHANTRY DR & BRICE RD,39.92451,-82.8322
CHANMEIW,CHANTRY DR AT 2ND SVC RD ENTRANCE,39.924632,-82.835145
CHANCHAW,CHANTRY DR & CHANTRY BLVD,39.924928,-82.840296
PARCCHAN,PARK CRESCENT DR & CHANTRY DR,39.926801,-82.844298
MACKIMEW,MACSWAY AVE & KIMBERLY PKWY EAST,39.923747,-82.883407
BOASHAN,BOARDWALK ST & SHAPTER AVE,40.088924,-82.991767
MAISCIN,MAIN ST & SCIOTO DARBY CREEK RD,40.027289,-83.160764
MAISCIS,MAIN ST & SCIOTO DARBY RD,40.027664,-83.161065
2425BET,2425 BETHEL RD,40.064526,-83.084106
CEMWBE,CEMETERY RD & WESTBROOK DR,40.030778,-83.148873
CEMBERLW,CEMETERY RD & BERRY LEAF LN,40.030992,-83.14827
RENRPRE,RENNER RD PARK AND RIDE,39.982254,-83.154574
BROSCEIE,E BROAD ST & SCENIC DR,39.984113,-82.800288
BROSCEIW,E BROAD ST & SCENIC DR,39.98431,-82.800592
BROBRICE,E BROAD ST & N BRICE RD,39.981228,-82.826457
BROBRICW,E BROAD ST & BRICE RD,39.981377,-82.827293
DIEBURGS,DIERKER RD & BURGOYNE CT,40.061159,-83.075215
DIEPKRN,DIERKER RD & PARK RUN DR,40.060669,-83.075037
DIEWENN,DIERKER RD & WENDYS DR,40.058,-83.075194
DIEBETS,DIERKER RD & BETHEL RD,40.063757,-83.075058
EASEASPE,EASTON WAY & EASTON SQUARE PL,40.048003,-82.915577
EASEASPW,EASTON WAY & EASTON SQUARE PL,40.04827,-82.915743
MORGRAMN,MORSE CROSSING & GRAMERCY ST,40.051675,-82.919834
MORSETN,MORSE CROSSING & SETON ST,40.055057,-82.918297
STEALSS,STELZER RD & ALSTON ST,40.052896,-82.909053
SPIALU1E,SPIEGEL DR & ALUM CREEK DR,39.837254,-82.932199
PORSPIN,PORT RD & SPIEGEL DR,39.83782,-82.924583
PORROHN,PORT RD & ROHR RD,39.841997,-82.924339
VACLINIC,VETERANS ADMINISTRATION CLINIC,39.979969,-82.910305
GEOWALW,WALMART GEORGESVILLE RD,39.928165,-83.119017
OHIAFRE,OHIO HEALTH & AFRICA RD,40.148226,-82.937828
HAMDIRN,HAMILTON RD & DIRECTORS BLVD,39.883918,-82.883211
ALUWINN,ALUM CREEK DR & WINSLOW DR,39.926085,-82.936068
ALUWINS,ALUM CREEK DR & WINSLOW DR,39.926318,-82.936452
ALULAWNN,ALUM CREEK DR & LAWNDALE AVE,39.913961,-82.929287
ALULAWNS,ALUM CREEK DR & LAWNDALE AVE,39.913881,-82.9295
ALUKOBLN,ALUM CREEK DR & KOEBEL RD,39.911293,-82.928282
ALUKOBLS,ALUM CREEK DR & KOEBEL RD,39.911186,-82.928494
ALUGLNAN,ALUM CREEK DR & GLENLEA DR,39.908928,-82.928445
ALUGLENS,ALUM CREEK DR & GLENLEA DR,39.908937,-82.928657
ALUWATN,ALUM CREEK DR & WATKINS RD,39.906715,-82.928643
ALUWATS,ALUM CREEK DR & WATKINS RD,39.90609,-82.928902
ALUNEWWN,ALUM CREEK DR & NEW WORLD DR,39.897942,-82.929355
ALUNEWWS,ALUM CREEK DR & NEW WORLD DR,39.897843,-82.929579
ALUCRKWS,ALUM CREEK DR & CREEKWAY DR,39.89521,-82.929801
ALUPROMN,ALUM CREEK DR & PROCLAMATION WAY,39.895086,-82.9296
ALUWHWN,ALUM CREEK DR & WHIMSWILLOW DR,39.891784,-82.929816
ALUWHWS,ALUM CREEK DR & WHIMSWILLOW DR,39.891828,-82.930093
MILWILLS,MILLSTONE RD & WILLIAMS RD,39.888842,-82.927231
MILMILS,MILLSTONE RD & MILLRACE RD,39.88707,-82.927467
THIBMILW,THIMBLEBERRY RD & MILLSTONE RD,39.885822,-82.928022
THIMALUW,THIMBLEBERRY RD & ALUM CREEK DR,39.885938,-82.930158
ALUWILN,ALUM CREEK DR & WILLIAMS RD,39.889481,-82.930114
CLEWESTN,CLEVELAND AVE & WESTAR BLVD,40.140589,-82.946923
CLEWESTS,CLEVELAND AVE & WESTAR BLVD,40.141461,-82.947102
CLECTLRN,CLEVELAND AVE & COUNTY LINE RD,40.136897,-82.947185
CLECTLRS,CLEVELAND AVE & COUNTY LINE RD,40.137446,-82.947398
POLCLEE,POLARIS PKWY & CLEVELAND AVE,40.145533,-82.945335
CLEPOLAS,CLEVELAND AVE & POLARIS PKWY,40.144963,-82.946827
HAMFIRS,HAMILTON RD & FIREHOUSE LN,39.879313,-82.88408
HAMFIRN,HAMILTON RD & FIREHOUSE LN,39.879322,-82.883642
TECAEPW,TECHCENTER DR & AEP,39.999917,-82.852721
OLERIVS1,OLENTANGY RIVER RD & RIVERVIEW DR,40.024316,-83.026198
ALUCGROS,ALUM CREEK DR & GROVEPORT RD,39.8677,-82.935524
TANWECS,TANGLEWOOD PARK BLVD & WESTCHESTER,39.985452,-83.155119
TANWECN,TANGLEWOOD PARK BLVD & WESTCHESTER,39.985877,-83.154792
CHAFLEE,CHATTERTON RD & FLEET RD,39.914381,-82.856286
REFBRIE,REFUGEE RD & BRICE RD,39.912717,-82.832576
GTCREFS,GENDER RD TOWN CENTER 1,39.909876,-82.822097
REFWINW,REFUGEE RD & WINCHESTER PIKE,39.91742,-82.913441
CHAFLEW,CHATTERTON RD & FLEET RD,39.914497,-82.85604
REFBRIW,REFUGEE RD & BRICE RD,39.912878,-82.832552
COLBROE,COLUMBUS ST & BROADWAY,39.883171,-83.092105
STRPARE,STRINGTOWN RD & PARKMEAD DR,39.878926,-83.064046
STRPARW,STRINGTOWN RD & PARKMEAD DR,39.878905,-83.063184
COLBROW,COLUMBUS ST & BROADWAY,39.88335,-83.092177
PARBROE,PARLIN DR & WILLOWOOD PL,39.895207,-83.081367
RICPARS1,RICHARD AVE & PARLIN DR,39.895051,-83.078983
RICADDIS,RICHARD AVE & ADDISON DR,39.892603,-83.080474
COLDULE,COLUMBUS ST & DUDLEY AVE,39.881886,-83.089608
COLHAUGE,COLUMBUS ST & HAUGHN RD,39.881545,-83.085431
COLRICE,COLUMBUS ST & RICHARD AVE,39.881419,-83.081184
COLBOKPE,COLUMBUS ST & BROOKPARK CIR,39.88131,-83.077337
COLKNAPE,COLUMBUS ST & KNAPP DR,39.881106,-83.071013
STRHOVE,STRINGTOWN RD & HOOVER RD,39.881064,-83.069255
BUCKRDBN,BUCKEYE PKWY & ROAD B,39.876344,-83.039739
STRTHISW,STRINGTOWN RD & THISTLEWOOD DR,39.87884,-83.041562
STRJACPW,STRINGTOWN RD & JACKPOT RD,39.878808,-83.04549
STRHOVW,STRINGTOWN RD & HOOVER RD,39.881234,-83.069409
COLHAUGW,COLUMBUS ST & HAUGHN RD,39.881698,-83.085243
COLDUDLW,COLUMBUS ST & DUDLEY AVE,39.881958,-83.089302
SOUBROE,SOUTHWEST BLVD & BROADWAY,39.890836,-83.085684
CHAFONTE,CHATTERTON RD & FONTAINE RD,39.913863,-82.852369
CHATFALE,CHATTERTON RD & FALCON BRIDGE DR,39.913559,-82.847011
REFCTNVE,REFUGEE RD & COUNTRY VIEW DR,39.911466,-82.827077
REFGENE,REFUGEE RD & GENDER RD,39.910787,-82.824316
GENUPRN,GENDER RD & UPPERIDGE DR,39.908288,-82.824364
REFGENW,REFUGEE RD & GENDER RD,39.910993,-82.824611
REFSTIRW,REFUGEE RD & STIRLING BRIDGE,39.911699,-82.827136
CHATFALW,CHATTERTON RD & FALCON BRIDGE DR,39.913737,-82.847565
CHATFONW,CHATTERTON RD & FONTAINE RD,39.914015,-82.852227
CHATBONE,CHATTERTON RD & BONUS DR,39.913326,-82.842785
CHATFXW,CHATTERTON RD & FOX CHAPLE DR,39.913567,-82.844025
GENPRIW,GENDER RD T C & PRIVATE DR,39.906842,-82.823043
CHAJOSE,CHATTERTON RD & JOSHSTOCK DR,39.913049,-82.837852
CHAJOSW,CHATTERTON RD & JOSHSTOCK DR,39.913236,-82.8383
TANSTES,TANGLEWOOD PARK BLVD & STEFFI DR,39.99056,-83.155509
TANSTEN,TANGLEWOOD PARK BLVD & STEFFI DR,39.990256,-83.155474
RENRTAW,RENNER RD & RENTRA DR,39.981815,-83.146575
RENRTAE,RENNER RD & RENTRA DR,39.981711,-83.146504
SULGEOE,SULLIVANT AVE & GEORGESVILLE RD,39.941764,-83.110743
BROLOZN,BROADWAY & LOTZ DR,39.8854,-83.090705
BROCDRGN,BROADWAY & CEDAR GROVE PL S,39.888377,-83.088107
ALUWILS,ALUM CREEK DR & WILLIAMS RD,39.888392,-82.930373
LINWODMN,LINWORTH RD & WOODMAN DR,40.096494,-83.048727
LINWODMS,LINWORTH RD & WOODMAN DR,40.096561,-83.048812
TRADIVDW,TRABUE RD & DIVIDEND DR,39.984799,-83.121513
GENDERCC,GENDER RD PARK & RIDE,39.872031,-82.825738
PKWCTRS,PARKWAY CENTRE DR & STRINGTOWN RD,39.87754,-83.045628
SHAATBUN,SHARON WOODS BLVD & ATTERBURY AVE,40.105992,-82.962808
SCHHICW,SCHROCK RD & HICKORY CREEK LN,40.107081,-82.966461
LONALUW,LONDON-GROVEPORT RD & ALUM CREEK DR,39.830132,-82.933005
ALUGRON,ALUM CREEK DR & GROVEPORT RD,39.86725,-82.935235
TRERIDN1,TREMONT RD & RIDGECLIFF RD,40.022905,-83.059345
NATMCCBE,NATIONWIDE BLVD & MCCONNELL BLVD,39.968223,-83.007784
NATMCCBW,NATIONWIDE BLVD & MCCONNELL BLVD,39.968423,-83.007356
ALULINS,ALUM CREEK DR & LINDSAY RD,39.877089,-82.931336
ALULINN,ALUM CREEK DR & LINDSAY RD,39.877653,-82.930975
MORINDW,MORSE RD & INDIANOLA AVE,40.061825,-83.000943
BETGRYSW,BETHEL RD & GREYSTONE DR,40.064933,-83.090337
STEAGLS2,STELZER RD & AGLER RD,40.019418,-82.911533
NORKINS1,KINGSDALE MACYS-NORTHWEST BLVD,40.021239,-83.057343
STECITGS,STELZER RD & CITYGATE DR,40.013035,-82.911958
STECITGN,STELZER RD & CITYGATE DR,40.013169,-82.911734
STEJOHTS,STELZER RD & JOHNSTOWN RD,40.005699,-82.912639
STEJOHTN,STELZER RD & JOHNSTOWN RD,40.005842,-82.912296
NEISPRUN,NEIL AVE & SPRUCE ST,39.972901,-83.009508
MORHEATE,MORSE RD & HEATON RD,40.060118,-82.966678
METUMETW,METRO PL N & UPPER METRO PL,40.095984,-83.128725
METCRPW,METRO PL N & CROWN PLAZA,40.096122,-83.13209
METS565S,565 METRO PL S,40.095091,-83.13317
METS495E,495 METRO PL S,40.093622,-83.132107
BROHIGW1,W BROAD ST & N HIGH ST,39.962301,-83.001034
WILARIE,WILLIAMS RD & ARIES BROOK DR,39.888785,-82.92865
BRO8400W,8400 E BROAD ST,39.987056,-82.776003
GRA5THN,GRANDVIEW AVE & W 5TH AVE,39.989114,-83.044352
GRA3RDN,GRANDVIEW AVE & THIRD AVE,39.985333,-83.044656
GRAKINGN,GRANDVIEW AVE & KING AVE,39.991358,-83.044164
GRAKINGS,GRANDVIEW AVE & KING AVE,39.991306,-83.044305
OLEHARS2,OLENTANGY RIVER RD & HARLEY DR,40.020425,-83.024769
PACRALSN,PARK CRESCENT DR & ALSHIRE RD,39.928557,-82.842929
NOSTARN,NORTH STAR RD & PRESIDENTIAL DR,39.997664,-83.048428
NOSTARS,NORTH STAR RD & PRESIDENTIAL DR,39.997297,-83.048664
KENSTELS,KENNY RD & STEELWOOD RD,39.995103,-83.035059
KENSTELN,KENNY RD & STEELWOOD RD,39.995101,-83.034939
LIVCHEE,E LIVINGSTON AVE & CHELSEA AVE,39.94736,-82.925531
SAWCRAN,SAWMILL RD & CRANSTON DR,40.085851,-83.091926
GRTEASW,GREAT EASTERN WESTBOUND,39.956252,-82.873484
WOOFISW,W WOODRUFF AVE & FISHER COLLEGE,40.004071,-83.015598
PARNATE,PARKCENTER CIR & NATIONWIDE,40.080231,-83.1329
MAILUDE,W MAIN ST & S LUDLOW ST,39.955758,-83.002226
LIVCARW,E LIVINGSTON AVE & CARPENTER ST,39.949977,-82.974898
SAWWESN,SAWMILL RD & WEST CASE RD,40.073191,-83.092587
SAWWESS,SAWMILL RD & WEST CASE RD,40.073956,-83.092811
LIVBROW,E LIVINGSTON AVE & BROWNING AVE,39.947313,-82.922266
SAWCRAS,SAWMILL RD & CRANSTON DR,40.084816,-83.092243
620SAWN,6200 SAWMILL RD,40.091979,-83.091611
617SAWS,6175 SAWMILL RD,40.09182,-83.091896
SAWDUBN,SAWMILL RD & DUBLIN-GRANVILLE RD,40.09591,-83.091373
SAWDUBS,SAWMILL RD & DUBLIN-GRANVILLE RD,40.096317,-83.091699
SULCOUW1,SULLIVANT AVE & COUNTRYBROOK E DR,39.939085,-83.116183
CHATORN,N CHAMPION AVE & TORONTO ST,39.975908,-82.96828
KARSTON,KARL RD & STONEGATE SQUARE WEST,40.049255,-82.976707
SPR4THW,E SPRING ST & N 4TH ST,39.966777,-82.997742
CLEMAIS1,CLEVELAND AVE & W MAIN ST,40.123899,-82.948331
ALUTHIS,ALUM CREEK DR & THIMBLEBERRY RD,39.885701,-82.930562
GEOSHOS,GEORGESVILLE RD & SHOPPERS LN,39.948533,-83.111036
CLE5THN1,CLEVELAND AVE & E 5TH AVE,39.986199,-82.989092
CLE5THS1,CLEVELAND AVE & E 5TH AVE,39.98598,-82.989266
LIVCHEW,E LIVINGSTON AVE & CHELSEA AVE,39.947494,-82.925709
SAWHARN,SAWMILL RD & HARD RD,40.117417,-83.090296
SAWHARS,SAWMILL RD & HARD RD,40.118426,-83.090493
SAWSUMS,SAWMILL RD & SUMMER DR,40.121567,-83.090343
SAWSUMN,SAWMILL RD & SUMMER DR,40.122834,-83.090028
SAWCOPN,SAWMILL RD & COPPERHILL DR,40.131121,-83.089597
SAWCOPS,SAWMILL RD & COPPERHILL DR,40.131216,-83.089857
SUMGOLE,SUMMIT VIEW RD & GOLD LEAF LN,40.132879,-83.086829
SUMCOPW,SUMMIT VIEW RD & COPPERVIEW DR,40.132984,-83.087073
SUMSHIW,SUMMIT VIEW RD & SHILLINGTON DR,40.132815,-83.081403
SUMROSE,SUMMIT VIEW RD & ROSCOE PL,40.13268,-83.080143
SUMSUMN,SUMMIT ROW BLVD & SUMMIT VIEW RD,40.133192,-83.074406
SUMSUMS,SUMMIT ROW BLVD & SUMMIT VIEW RD,40.132779,-83.074568
RIDTREE,RIDGECLIFF RD & TREMONT RD,40.02244,-83.060029
LIVSIMW1,E LIVINGSTON AVE & SIMPSON DR,39.944621,-82.8736
NOTMOUE,NOTTINGHAM RD & MOUNTVIEW RD,40.025139,-83.072645
NOTRAME,NOTTINGHAM RD & RAMSGATE RD,40.025305,-83.076385
NOTDORE,NOTTINGHAM RD & DORCHESTER RD,40.025453,-83.079904
NOTKIOE,NOTTINGHAM RD & KIOKA AVE,40.02563,-83.083859
NOTSUNE,NOTTINGHAM RD & SUNSET DR,40.025891,-83.090528
NOTSUNW,NOTTINGHAM RD & SUNSET DR,40.026019,-83.090387
SMOSMOW,SMOKY VIEW BLVD & SMOKY ROW RD,40.135824,-83.07192
SMOSUMN1,SMOKY ROW RD & SUMMIT ROW BLVD,40.133673,-83.070874
CEMBRIW,CEMETERY RD & BRITTON PKWY,40.032476,-83.132127
CEMBRIE,CEMETERY RD & BRITTON PKWY,40.032417,-83.130612
CEMBROW,CEMETERY RD & BROWN PARK DR,40.032079,-83.136775
CEMBROE,CEMETERY RD & BROWN PARK DR,40.031929,-83.136753
MOURICW,W MOUND ST & S RICHARDSON AVE,39.939213,-83.066876
FUJBRAW,FUJI DR & BRADY DR,40.088511,-82.953906
HOLCASS,HOLLYWOOD CASINO,39.951259,-83.107742
HOLCASN,HOLLYWOOD CASINO,39.950492,-83.107633
4THWOON,S 4TH ST & E WOODROW AVE,39.927486,-82.99312
WESHIGW,WESTVIEW TURNAROUND,40.069979,-83.019601
HIGMAIS2,S HIGH ST & W MAIN ST,39.955576,-82.999492
KARNORS,KARL RD & NORTHLAND PARK AVE,40.057521,-82.976509
TAYLONS,TAYLOR AVE & E LONG ST,39.969491,-82.961613
HUTHIGE,HUTCHINSON AVE & HIGH CROSS BLVD,40.113712,-83.012237
MORGREE,MORSE RD & GREENCROFT RD,40.055903,-82.878402
MORKENW,MORSE RD & KENSINGWOOD DR,40.056072,-82.8791
MORSLEW,MORSE RD & SLEAFORD AVE,40.055859,-82.874511
MORSHEE,MORSE RD & SHEFFIELD DR,40.055689,-82.873683
BROEASW,E BROAD ST & EASTPOINTE RIDGE DR,39.982407,-82.818173
BROLANE1,E BROAD ST & LANCASTER AVE,39.982753,-82.813255
SAWKAYN,SAWMILL RD & KAYS RD,40.080194,-83.092177
SAWKAYS,SAWMILL RD & KAYS RD,40.079747,-83.092495
324ALLE,3243 ALLEGHENY AVE,39.98051,-82.9175
GOUALLN,N GOULD RD & ALLEGHENY AVE,39.980687,-82.922344
RUHKELW,RUHL AVE & N KELLNER RD,39.977718,-82.914155
KARCOLS,KARL RD & COLUMBUS LIBRARY,40.081037,-82.97584
MAISHAS1,MAIZE RD & SHANLEY DR,40.056689,-82.987743
HAM24TN,HAMILTON AVE & E 24TH AVE,40.006579,-82.979381
HAM24TS,HAMILTON AVE & E 24TH AVE,40.00637,-82.979556
HAM20TN,HAMILTON AVE & E 20TH AVE,40.003783,-82.979639
11TJEFW,E 11TH AVE & JEFFERSON AVE,39.993825,-82.983348
11TJEFE,E 11TH AVE & JEFFERSON AVE,39.993678,-82.983023
FREGILE,FREBIS AVE & GILBERT ST,39.935053,-82.975162
FREOHIE1,FREBIS AVE & S OHIO AVE,39.934931,-82.972671
FREOAKE,FREBIS AVE & OAKWOOD AVE,39.934782,-82.969577
LOCLOCN1,LOCKBOURNE RD & LOCKHURST RD,39.929752,-82.96473
LOCMARS2,LOCKBOURNE RD & MARION RD,39.92246,-82.965475
KOEEDSW1,KOEBEL RD & EDSEL AVE,39.912433,-82.960326
MOUDAKW,W MOUND ST & DAKOTA AVE,39.948537,-83.025889
RICGRUW,W RICH ST & S GRUBB ST,39.955581,-83.016681
RICMCDW,W RICH ST & MCDOWELL ST,39.95605,-83.012844
RICLUCW,W RICH ST & LUCAS ST,39.956284,-83.010778
MOUYALW,W MOUND ST & S YALE AVE,39.947622,-83.029228
INDSCHN1,INDIANOLA AVE & E SCHREYER PL,40.051973,-83.000031
SUM9THS,SUMMIT ST & E 9TH AVE,39.99227,-83.001771
4TH7THN1,N 4TH ST & E 7TH AVE,39.989666,-82.999326
SUM3RDS,SUMMIT ST & E 3RD AVE,39.983983,-83.001594
PARCOLS,PARSONS AVE & COLUMBUS ST,39.946416,-82.982888
PARWILS1,PARSONS AVE & WILLIAMS RD,39.890982,-82.987087
PARASHS1,PARSONS AVE & ASHWOOD RD,39.887779,-82.987326
PARHARS1,PARSONS AVE & HARLAND DR,39.884504,-82.987628
SULWHEW1,SULLIVANT AVE & S WHEATLAND AVE,39.94588,-83.0612
CEMFRAW,CEMETERY RD & FRANKLIN ST,40.030176,-83.156978
CEMLUXE,CEMETERY RD & LUXAIR DR,40.030116,-83.155878
SCIBRAE,SCIOTO DARBY RD & BRADFORD DR,40.030487,-83.164829
SCIBRAW,SCIOTO DARBY RD & BRADFORD DR,40.030666,-83.164913
380VETS,3800 VETERANS MEMORIAL DR,40.029763,-83.168345
HIGBOBN,S HIGH ST & BOB EVANS,39.883171,-83.000207
209HIGE,209 HIGHFIELD DR,40.073123,-83.025054
KARFERN1,KARL RD & FERRIS RD,40.0516,-82.976518
NORVILS,KARL & NORTHLAND VILLAGE,40.051941,-82.976697
MAILUDW,W MAIN ST & S LUDLOW ST,39.95591,-83.002015
BRILIVS1,BRICE RD & LIVINGSTON AVE,39.942124,-82.830002
CHARENW1,CHATTERTON RD & RENFRO RD,39.915291,-82.858731
CHARENE,CHATTERTON RD & RENFRO RD,39.915202,-82.858884
PORSPIS,PORT RD & SPIEGEL DR,39.836579,-82.924794
SULWHEE,SULLIVANT AVE & S WHEATLAND AVE,39.945728,-83.061353
CHALONN,CHAMPION AVE & E LONG ST,39.968956,-82.968282
3RDSAYE,E 3RD AVE & SAY AVE,39.983712,-83.002548
WES740W,7400 WEST CAMPUS ROAD,40.105495,-82.82013
143GEOW,1443 GEORGESVILLE RD,39.920778,-83.127067
GEOBOLW,GEORGESVILLE FRONTAGE RD & BOLTONFIELD ST,39.920165,-83.129921
EASCHAE,EASTON WAY & CHAGRIN DR,40.047879,-82.912657
MORCHAE,MORSE RD & CHATEAU MORSE DR,40.058526,-82.932769
EASEASW,EASTON WAY & EASTON LOOP E,40.048272,-82.911474
3RDPARE1,W 3RD AVE & PARKWAY DR N,39.984557,-83.033142
FROLONN,N FRONT ST & W LONG ST,39.96526,-83.002938
MOUMONW,MT VERNON AVE & N MONROE AVE,39.971375,-82.97803
WAL732W,7323 WALTON PKWY,40.094008,-82.819142
SMI733E,7333 SMITHS MILL RD,40.086793,-82.789169
WAL780W,7800 WALTON PKWY,40.09188,-82.809299
HUDMCGW,E HUDSON ST & MCGUFFEY RD,40.014354,-82.981728
HIGSYCS1,HIGH ST & W SYCAMORE ST,39.949283,-82.998211
2NDHIGW,E 2ND AVE & N HIGH ST,39.982718,-83.004548
BRISCAS,BRICE RD & SCARBOROUGH BLVD,39.926051,-82.831461
HAMROCN1,HAMILTON RD & ROCKY FORK BLVD,40.013312,-82.866801
HAMHAVN1,HAMILTON RD & HAVENS CORNERS RD,40.01893,-82.866337
HAMWORN,HAMILTON RD & WORMAN DR,40.025498,-82.865882
HAM500N,500 N HAMILTON RD,40.03152,-82.865416
HAMJOHN,HAMILTON RD & JOHNSTOWN RD,40.037275,-82.864802
HAM920N,920 N HAMILTON RD,40.04248,-82.864482
HAMBEEN,N HAMILTON RD & BEECHER RD,40.04597,-82.864222
HAMSHAN1,N HAMILTON RD & SHAGBARK DR,40.049281,-82.863962
HAMSTON,N HAMILTON RD & STONERIDGE LN,40.051658,-82.863738
HAMSTOS,N HAMILTON RD & STONERIDGE LN,40.052635,-82.864029
HAMVISS,N HAMILTON RD & VISTA DR,40.048148,-82.864376
HAMBEES,N HAMILTON RD & BEECHER RD,40.045345,-82.864577
HAM971S,971 N HAMILTON RD,40.04215,-82.864825
HAMJONS,N HAMILTON RD & E JOHNSTOWN RD,40.037304,-82.86518
HAM559S,559 N HAMILTON RD,40.031386,-82.865593
HAMWORS,N HAMILTON RD & WORMAN DR,40.025297,-82.866116
HAMGRAS1,N HAMILTON RD & GRANVILLE ST,40.017686,-82.866692
HAMROCS,N HAMILTON RD & ROCKY FORK BLVD,40.013634,-82.867114
FORFORE,NEW ALBANY PARK & RIDE,40.090584,-82.788275
WAL800W,8000 WALTON PKWY,40.091858,-82.801147
WAL779W,7795 WALTON PKWY,40.093649,-82.814469
FIT630S,6301 FITCH PATH,40.084548,-82.782114
SMI811E,8111 SMITHS MILL RD,40.083508,-82.765035
SMI882E,8825 SMITHS MILL RD,40.092616,-82.751931
SMI886E,8865 SMITHS MILL RD,40.092142,-82.749141
SMI900E,9005 SMITHS MILL RD,40.091958,-82.744875
SMI904S,9040 SMITHS MILL RD,40.087283,-82.742109
5THWALW1,E 5TH AVE & WALTERS ST,39.986275,-82.98304
5THWALE1,E 5TH AVE & WALTERS ST,39.986158,-82.983347
OHIFULS,S OHIO AVE & E FULTON ST,39.954825,-82.971178
FREELLE,FREBIS AVE & ELLSWORTH AVE,39.934422,-82.961667
MET485E,485 METRO PL S,40.093323,-83.128698
MORHEMN,MORRISON RD & HEMSTON DR,40.008752,-82.864895
HAMBROS2,HAMILTON RD & E BROAD ST,39.975087,-82.874167
WILTRAS,N WILSON RD & TRABUE RD,39.987022,-83.107274
WILGRIN1,N WILSON RD & GRIMES DR,39.982334,-83.104292
WILGRIS1,N WILSON RD & GRIMES DR,39.982182,-83.104374
WILTWIS1,N WILSON RD & TWIN CREEKS DR,39.979284,-83.102663
WILTWIN1,N WILSON RD & TWIN CREEKS DR,39.979525,-83.102629
WILFERS,N WILSON RD & FERRELL PL,39.970815,-83.097615
WILLINN,N WILSON RD & LINDENDALE DR,39.970682,-83.097378
WILVALS,N WILSON RD & VALLEYVIEW DR,39.961819,-83.092708
WILVALN,N WILSON RD & VALLEYVIEW DR,39.962025,-83.092567
WILBRON1,N WILSON RD & W BROAD ST,39.95439,-83.094491
GEOCASN,GEORGESVILLE RD & CASINO SERVICE RD,39.948683,-83.110851
MOU5THW1,E MOUND ST & S 5TH ST,39.955797,-82.991303
ALUTHIN,ALUM CREEK DR & THIMBLEBERRY RD,39.885714,-82.930346
BROGLAE,W BROAD ST & GLADYS RD,39.951836,-83.13553
BROBUEW,W BROAD ST & BUENA VISTA AVE,39.951744,-83.140797
BROMURW,W BROAD ST & N MURRAY HILL RD,39.952367,-83.129038
BROSTUW,W BROAD ST & STURBRIDGE RD,39.952031,-83.13611
BRY22NE,BRYDEN RD & S 22ND ST,39.960475,-82.971446
1STAVOE,W 1ST AVE & AVONDALE AVE,39.981661,-83.042125
BRY19TW,BRYDEN RD & S 19TH ST,39.960605,-82.975037
HIGPREN,HIGH ST & PRESCOTT ST,39.980166,-83.004035
TRAMCKE,TRABUE RD & MCKINLEY AVE,39.994755,-83.086055
TRAMCKW,TRABUE RD & MCKINLEY AVE,39.994827,-83.086079
HAMDIRS,HAMILTON RD & DIRECTORS BLVD,39.883232,-82.88372
OLEHENN,OLENTANGY RIVER RD & HENDERSON RD,40.053003,-83.033636
4THCAPN,S 4TH ST & E CAPITAL ST,39.961959,-82.995991
ROH283E,2830 ROHR RD,39.843064,-82.930294
OPU610N,6100 OPUS DR,39.849397,-82.919793
CRE320W,3205 CREEKSIDE PKWY,39.852704,-82.943004
CREROHN,CREEKSIDE PKWY & DRILL DR,39.844025,-82.949255
TOY328E,3281 TOY RD,39.852088,-82.927625
CEN527N,5271 CENTERPOINT PKWY,39.856833,-82.921123
CEN536S,5360 CENTERPOINT DR,39.853868,-82.925428
TOY527,5271 TOY RD,39.852227,-82.925555
GRE560S,5601 GREEN POINT DR,39.860024,-82.902933
PONLONS,PONTIUS RD & LONDON GROVEPORT RD,39.842029,-82.902622
PONTIUE,PONTIUS RD & HONEYWELL,39.83027,-82.902048
PONHAY2,PONTIUS RD & HAYS RD 2,39.828969,-82.89383
FROBROS,S FRONT ST & W BROAD ST,39.961774,-83.002451
EASSUNE,EASTON WAY & SUNBURY RD,40.049755,-82.928326
EASSUNW,EASTON WAY & SUNBURY RD,40.049835,-82.928007
SUNINNS,SUNBURY RD & INNIS RD,40.034848,-82.932569
INNWESW,INNIS RD & WESTERVILLE RD,40.037281,-82.952315
HIGMOLN,S HIGH ST & E MOLER ST,39.935149,-82.995918
JENHIGE,E JENKINS AVE & S HIGH ST,39.933454,-82.995737
FROTOWS,S FRONT ST & W TOWN ST,39.958695,-83.001866
SANPARN,SANCUS BLVD & PARK RD,40.126998,-82.993777
SANPARS,SANCUS BLVD & PARK RD,40.126917,-82.994002
POLORIE,POLARIS PKWY & ORION PL,40.142715,-82.965792
NAT4THW,110 E NATIONWIDE BLVD,39.969176,-82.998721
AFRPOLN,AFRICA RD & POLARIS PKWY,40.146715,-82.938907
POLAFRW,POLARIS PKWY & AFRICA RD,40.146421,-82.938409
POLCLEW,POLARIS PKWY & CLEVELAND AVE,40.145978,-82.947597
POLOLDW,POLARIS PKWY & OLD WORTHINGTON RD,40.145871,-82.959592
POLOLDE,POLARIS PKWY & OLD WORTHINGTON RD,40.14555,-82.958834
SAN866N,8664 SANCUS BLVD,40.140558,-82.991316
SAN868S,8685 SANCUS BLVD,40.140737,-82.99147
SAN832N,8322 SANCUS BLVD,40.13763,-82.991595
SAN8491S,8491 SANCUS BLVD,40.137345,-82.991819
SANLAZN,SANCUS BLVD & LAZELLE RD,40.136042,-82.991687
SANLAZS,SANCUS BLVD & LAZELLE RD,40.135497,-82.991934
SANBRON,SANCUS BLVD & BROCKWELL DR,40.131821,-82.990673
SANBROS,SANCUS BLVD & BROCKWELL DR,40.131589,-82.990933
SANMASN,SANCUS BLVD & MASTER CT,40.123552,-82.994754
SANWHIS,SANCUS BLVD & WHITE WATER BLVD,40.123257,-82.995132
SANWORN,SANCUS BLVD & WORTHINGTON WOODS BLVD,40.119374,-82.995326
WORSANW,WORTHINGTON WOODS & SANCUS BLVD,40.118945,-82.996
WORALTW,WORTHINGTON WOODS & ALTA VIEW BLVD,40.119171,-83.00109
WORALTE,WORTHINGTON WOODS & ALTA VIEW BLVD,40.118985,-83.000332
HIGDIMS,HIGH CROSS BLVD & DIMENSION DR,40.117935,-83.01245
DALDUBN,DUBLIN DALE DR PARK & RIDE,40.101391,-83.107014
PBLAZACE,PAUL G BLAZER &ASHLAND CHEMICAL,40.088942,-83.132456
MCCMCCW,MCCUTCHEON RD & MCCUTCHEON PL,40.034154,-82.927993
MCCMCCE,MCCUTCHEON RD & MCCUTCHEON PL,40.033976,-82.927519
167HARN,1670 HARRISBURG PIKE,39.923079,-83.059579
SPRDUBS,SPRING RUN DR & E DUBLIN-GRANVILLE RD,40.087313,-82.95672
REFEASE,REFUGEE RD & EASTLAND MALL,39.915878,-82.887365
CHAHAWN,CHAMPION AVE & HAWTHORNE AVE,39.970741,-82.968155
MCKMCKW,MCKINLEY AVE & MCKINLEY TRANSPORTATION,39.963875,-83.041242
SOUTR10A,COTA TRANSIT TERMINAL BAY 10 ARRIVE,39.956217,-82.998933
BOASHAS,BOARDWALK ST & SHAPTER AVE,40.088174,-82.992038
NATHIGW2,W NATIONWIDE BLVD & N HIGH ST,39.969128,-83.002288
BROASHW,E BROAD ST & N ASHBURTON RD,39.972248,-82.911966
SPRHIGW,E SPRING ST & N HIGH ST,39.966398,-83.00122
BRO4THW,E BROAD ST & N 4TH ST,39.962825,-82.996146
NAG5THE1,E NAGHTEN ST & N 5TH ST,39.968724,-82.996216
LAZBOY,LAY Z BOY,39.846238,-82.919083
309ROH,3099 ROHR RD,39.841313,-82.916721
651PON,6513 PONTIUS RD,39.836071,-82.902805
640COM,6405 COMMERCE CT,39.844166,-82.899685
191BIX,1913 BIXBY RD,39.855182,-82.94737
JAMRUHN,JAMES RD & RUHL AVE,39.977014,-82.913009
MARLONS,MARCONI BLVD & LONG ST,39.964627,-83.004795
BROLOWW,E BROAD ST & LOWELL RD,39.971845,-82.915639
LANHIGW,W LANE AVE & N HIGH ST,40.006139,-83.010373
HIGLANS,N HIGH ST & W LANE AVE,40.00565,-83.009261
LANNEIW,W LANE AVE & NEIL AVE,40.006269,-83.014143
LANNEIE,W LANE AVE & NEIL AVE,40.006144,-83.013788
GRAMOUS,S GRANT AVE & E MOUND ST,39.956566,-82.989875
LANTUTW,W LANE AVE & TUTTLE PARK PL,40.0064,-83.016767
LANTUTE,W LANE AVE & TUTTLE PARK PL,40.006301,-83.01692
LANOLEE,W LANE AVE & OLENTANGY RIVER RD,40.006508,-83.022794
BETPICW,BETHEL RD & PICKFORDE DR,40.064843,-83.087054
OLEACKS,OLENTANGY RIVER RD & ACKERMAN RD,40.015379,-83.022838
OLEDODN,OLENTANGY RIVER RD & DODRIDGE ST,40.016977,-83.023101
659NEWW,6595 NEW ALBANY RD E,40.104035,-82.807231
840SMIE,8400 SMITH'S MILLS RD,40.083632,-82.76416
906SMIN,9065 SMITH'S MILL RD N,40.091209,-82.74213
904SMIN,9040 SMITH'S MILL RD,40.085426,-82.742838
487SINN,4875 SINCLAIR RD,40.065006,-82.998442
487SINS,4875 SINCLAIR RD,40.064613,-82.998678
SINFREN,SINCLAIR RD & FREEWAY DR N,40.070807,-82.998051
SINFRES,SINCLAIR RD & FREEWAY DR N,40.069995,-82.998322
SINSTRN,SINCLAIR RD & STRIMPLE AVE,40.072459,-82.99796
SINSTRS,SINCLAIR RD & STRIMPLE AVE,40.072137,-82.998195
SINLINN,SINCLAIR RD & LINCOLN AVE,40.07511,-82.997811
SINLINS,SINCLAIR RD & LINCOLN AVE,40.074199,-82.998057
SINSHON,SINCLAIR RD & SHORE DR,40.081054,-82.997526
SINSHOS,SINCLAIR RD & SHORE DR,40.080733,-82.997739
SINDUBN,SINCLAIR RD & DUBLIN GRANDVILLE RD,40.087873,-82.997527
SINDUBS,SINCLAIR RD & DUBLIN GRANDVILLE RD,40.087445,-82.997739
VENSOUE,VENICE DR & SOUTHFIELD DR E,39.897659,-82.953132
VENFAIW,VENICE DR & FAIRWOOD AVE,39.898825,-82.957724
VENFAIE,VENICE DR & FAIRWOOD AVE,39.898646,-82.957369
FAISOUN,FAIRWOOD AVE & SOUTHFIELD DR S,39.90127,-82.957597
FAISOUS,FAIRWOOD AVE & SOUTHFIELD DR S,39.90144,-82.957798
FAIWEIN,SOUTHFIELD DR & WEIRTON DR,39.90014,-82.95271
WEIHOUN,WEIRTON DR & HOUSTON DR,39.902443,-82.952288
WEIWATS,WEIRTON DR & WATKINS RD,39.904255,-82.952798
WEIWATN,WEIRTON DR & WATKINS RD,39.904513,-82.952562
180WATW,1800 WATKINS RD,39.904349,-82.945564
180WATE,1800 WATKINS RD,39.904179,-82.945446
WATNEWE,WATKINS RD & NEW WORLD DR,39.903853,-82.938848
WATNEWW,WATKINS RD & NEW WORLD DR,39.904031,-82.939262
WATALUW,WATKINS RD & ALUM CREEK DR,39.906081,-82.929339
WATALUE,WATKINS RD & ALUM CREEK DR,39.905912,-82.928914
FAIGATN,FAIRWOOD AVE & GATES ST,39.936409,-82.954668
FAIGATS,FAIRWOOD AVE & GATES ST,39.936159,-82.954916
FAIDESN,FAIRWOOD AVE & DESHLER AVE,39.939256,-82.954412
FAIDESS,FAIRWOOD AVE & DESHLER AVE,39.938935,-82.954648
FAIWHIN,FAIRWOOD AVE & WHITTIER ST,39.942478,-82.954168
FAIWHIS,FAIRWOOD AVE & WHITTIER ST,39.942915,-82.954311
WILFISN,N WILSON RD & FISHER RD,39.96659,-83.094896
WILFISS,N WILSON RD & FISHER RD,39.966812,-83.095275
HIGMOLS,S HIGH ST & E MOLER ST,39.935318,-82.996142
HIGHANN,S HIGH ST & HANFORD ST,39.936755,-82.995956
E11HIGW,E 11TH AVE & N HIGH ST,39.994844,-83.006911
11T4THW,E 11TH AVE & N 4TH ST,39.994487,-82.999561
HAGVANN,HAGUE AVE & VANDERBERG AVE,39.936772,-83.07454
HAGVANS,HAGUE AVE & VANDERBERG AVE,39.936808,-83.074753
HAGROSN,HAGUE AVE & ROSEDALE AVE,39.934647,-83.075148
HAGROSS,HAGUE AVE & ROSEDALE AVE,39.934683,-83.07536
HAGBRIN,HAGUE AVE & BRIGGS RD,39.931138,-83.076152
HAGBRIS,HAGUE AVE & BRIGGS RD,39.93103,-83.076459
BRIBINW,BRIGGS RD & BINNS BLVD,39.931799,-83.081148
COULIVS,COURTRIGHT RD & E LIVINGSTON AVE,39.94547,-82.897034
GENBRIN,GENDER RD & BRICE RD,39.923176,-82.829279
COULIVN1,COURTRIGHT RD & E LIVINGSTON AVE,39.944015,-82.896939
COUKIRN,COURTRIGHT RD & KIRKWOOD RD,39.941489,-82.897162
TAYCLIN,TAYLOR AVE & CLIFTON AVE,39.971398,-82.961281
COUKIRS,COURTRIGHT & KIRKWOOD RD,39.941061,-82.89741
TAYCLIS,TAYLOR AVE & CLIFTON AVE,39.971264,-82.961505
COUROSN,COURTRIGHT RD & ROSWELL RD,39.93783,-82.897491
TAYGREN,TAYLOR AVE & GREENWAY AVE,39.974335,-82.961037
GENBRIS,GENDER RD & BRICE RD,39.923069,-82.829444
COUROSS,COURTRIGH RD & ROSWELL RD,39.93858,-82.897633
TAYMTVS,TAYLOR AVE  & MT VERNON AVE,39.974317,-82.961249
GENCENS,GENDER RD & CENTENIAL DR,39.919989,-82.825704
GENCENN,GENDER RD & CENTENIAL DR,39.920096,-82.825538
TAYMARS,TAYLOR AVE & MARYLAND AVE,39.977628,-82.961018
MCNCHEN,MCNAUGHTEN & CHERRY HILL DR,39.959127,-82.837966
MCNEFFS,MCNAUGHTEN RD & EFFINGHAM RD,39.959431,-82.838155
MCNOLDN,MCNAUGHTEN RD & OLDE ORCHARD DR,39.963456,-82.837587
MCNOLDS,MCNAUGHTEN RD & OLDE ORCHARD DR,39.963875,-82.837752
HAMELMN,S HAMILTON & ELMONT PL,39.865785,-82.885094
MCNBASN,MCNAUGHTEN & BASKERVILLE DR,39.966374,-82.837314
HAMELMS,S HAMILTON & ELMONT PL,39.865552,-82.88533
MCNWINS,MCNAUGHTEN RD & WINDING RIDGE DR,39.966374,-82.837527
MCNBILLN,MCNAUGHTEN RD & BILLINGTON DR,39.969266,-82.837018
MCNWHIS,MCNAUGHTEN RD & WHITNEY WOODS CT,39.969266,-82.83723
MCNKNIN,MCNAUGHTEN RD & KNIVERS EDGE WAY,39.972898,-82.836698
MCNWHI1,MCNAUGHTEN RD & WHITMAN RD,39.972898,-82.83691
MCNGANN,MCNAUGHTEN RD & GANSE,39.97745,-82.836306
TAYGAHN,TAYLOR STATION RD & GAHANNA PKWY,39.990311,-82.841441
TAYGAHS,TAYLOR STATION RD & GAHANNA PKWY,39.990401,-82.84163
CLATAYE,CLAYCRAFT RD & TAYLOR STATION RD,39.9924,-82.840176
CLASCIE,CLAYCRAFT RD & SCIENCE BLVD,39.992606,-82.844134
CLASCIW,CLAYCRAFT RD & SCIENCE BLVD,39.992766,-82.844134
790SCIN,790 SCIENCE BLVD,39.996488,-82.843247
791SCIS,791 SCIENCE BLVD,39.996631,-82.843448
SCITECN,SCIENCE BLVD & TECH CENTER DR,39.999362,-82.843128
SCITECS,SCIENCE BLVD & TECH CENTER DR,39.999362,-82.843341
GRASHAW,GRANVILLE ST & N HAMILTON RD,40.018409,-82.866668
GRALINW,GRANVILLE ST & LINCOLN CIR,40.018659,-82.872886
GRALINE,GRANVILLE ST & LINCOLN CIR,40.018498,-82.872886
GRASHIE,GRAVILLE ST & S HIGH ST,40.018685,-82.877436
HAMLOWN,S HAMILTON & LOWERY CT,39.860269,-82.8856
HAMLOWS,S HAMILTON RD & LOWERY CT,39.860269,-82.885812
GRASHIW,GRANVILLE ST & S HIGH ST,40.018846,-82.877436
US6OLDW,US 62 & OLD RIDENOUR RD,40.018934,-82.882543
US6OLDE,US 62 & OLD RIDENOUR RD,40.018755,-82.883914
NSTAGLN,N STYGLER RD & AGLER RD,40.019424,-82.890474
BRIPKYN,5780 BRITTON PKWY,40.070438,-83.137153
NSTDUNN,N STYGLER RD & DUNNCHURCH RD,40.022726,-82.890203
NSTCHAN,N STYGLER RD & CHAPELFIELD RD,40.026787,-82.88985
NSTMCCN,N STYGLER RD & MCCUTCHEON RD,40.029572,-82.889603
STYMCCN,STYGLER RD & MCCUTCHEON RD,40.032981,-82.889309
BRIPKYS,5780 BRITTON PKWY,40.070402,-83.137366
BRITUTS,BRITTON PKWY & TUTTLES BROOK DR,40.067652,-83.137687
555BRPKN,5550 BRITTON PKWY,40.067555,-83.137296
STYMCCS,STYGLER RD & MCCUTCHEON RD,40.032749,-82.889533
STYWOON,STYGLER RD & WOODMARK RUN,40.037533,-82.888909
STYWOOS,STYGLER RD & WOODMARK RUN,40.03789,-82.889086
STYFORN,STYGLER RD & FORESTWOOD DR,40.040728,-82.888591
STYFORS,STYGLER RD & FORESTWOOD DR,40.041148,-82.888756
STYRIDN,STYGLER RD & RIDENOUR RD,40.044129,-82.888237
STYSANS,STYGLER RD & SANDBURR DR,40.04354,-82.888509
BRICARN,BRITTON PKWY & CARRINGTON WAY,40.058623,-83.136351
STYWENS,STYGLER RD & WENDLER BLVD,40.046993,-82.890816
5677ALE,5677 ALSHIRE RD,39.929158,-82.838649
SAWSBS,SAWMILL RD & SAWBURY BLVD,40.114337,-83.090736
SAWSBN,SAWMILL RD & SAWBURY BLVD,40.113953,-83.090475
SAWSNOS,SAWMILL RD & SNOUFFER RD,40.105366,-83.091335
SAWSNON,SAWMILL RD & SNOUFFER RD,40.104286,-83.090976
SAWFEDN,SAWMILL RD & FEDERATED BLVD,40.102224,-83.091005
SAWVILLS,SAWMILL RD & VILLAGE PKWY,40.101402,-83.091417
SAWSAWN,SAWMILL RD & SAWMILL PLACE BLVD,40.09993,-83.091081
SAWBANS,SAWMILL RD & BANKER DR,40.099814,-83.091495
DUBSAWW,W DUBLIN GRANVILLE RD & SAWMILL,40.097883,-83.092873
BRICARS,BRITTON RD & CARRINGTON WAY,40.057614,-83.136265
HAMHOMS,S HAMILTON RD & HOMER OHIO LN,39.875137,-82.884543
BRIFARN,BRITTON PKWY & BRITTON FARMS DR,40.05526,-83.135321
DUBDUBW,W DUBLIN GRANVILLE RD & DUBLIN CENTER DR,40.098861,-83.094923
HAMHOMN,S HAMILTON RD & HOMER OHIO LN,39.875405,-82.884012
BRIFARS,BRITTON PKWY & BRITTON FARMS DR,40.054787,-83.13539
DUBDUBE,W DUBLIN GRANVILLE RD & DUBLIN CENTER DR,40.098433,-83.094685
HAMFOUS,S HAMILTON RD & FOUNDERS DRIVE,39.869256,-82.884978
DUBSHAW,W DUBLIN GRANVILLE RD &  SHAMROCKBLVD,40.099491,-83.101871
BRIDAVS,BRITTON PKWY & DAVIDSON RD,40.050309,-83.134191
DUBSHAE,W DUBLIN GRANVILLE RD & SHAMROCK BLVD,40.099102,-83.099574
BRIDAVN,BRITTON PKWY & DAVIDSON RD,40.050363,-83.133848
BRIANSS,BRITTON PKWY & ANSON DR,40.042184,-83.13137
DUBDALW,W DUBLIN GRANVILLE RD & DALE DR,40.099669,-83.106877
BRIANSN,BRITTON PKWY & ANSON DR,40.042033,-83.130979
DUBDALE,W DUBLIN GRANVILLE RD & DALE DR,40.099419,-83.106959
BRIALLS,BRITTON PKWY & ALL SEASONS DR,40.03632,-83.131265
BRINHIW,E BRIDGE ST & N HIGH ST,40.099665,-83.113492
BRIALLN,BRITTON PKWY & ALL SEASONS DR,40.036758,-83.130912
BRICEMN,BRITTON PKWY & CEMETERY RD,40.032742,-83.131133
DUBHAYN,DUBLIN RD & HAYDEN RUN RD,40.067597,-83.112517
80WBRIW,80 W BRIDGE ST,40.0993,-83.117088
181WBRE,181 W BRIDGE ST,40.099157,-83.117253
HILLTANS,HILLIARD ROME RD & TANGLEWOOD PARK BLVD,39.991675,-83.15207
BRICORE,W BRIDGE ST & CORBIN MILL DR,40.099115,-83.120342
HILLTANN,HILLIARD ROME RD & TANGLEWOOD PARK BLVD,39.991408,-83.151797
177HILLN,1770 HILLIARD ROME RD,39.987581,-83.151156
BRISHAW,W BRIDGE ST & SHAWAN FALLS DR,40.099275,-83.120887
178HILLS,1785 HILLIARD ROME RD,39.988276,-83.151478
HILWESN,HILLIARD ROME RD & WESTCHESTER WOODS BLVD,39.985154,-83.150744
HILWESS,HILLIARD ROME RD & WESTCHESTER WOODS BLVD,39.985136,-83.150957
HILRENS,HILLIARD ROME RD & RENNER RD,39.981593,-83.150966
HILRENN,HILLIARD ROME RD & RENNER RD,39.981602,-83.1506
HILFEDS,HILLIARD ROME RD & FEDER RD,39.972384,-83.15002
HILFEDN,HILLIARD ROME RD & FEDER RD,39.972777,-83.149856
HILSUMS,HILLIARD ROME RD & SUMMERLIN WAY,39.966554,-83.147091
HILSUMN,HILLIARD ROME RD & SUMMERLIN WAY,39.966554,-83.146878
HILMANS,HILLIARD ROME RD & MANOR PARK DR,39.963154,-83.146735
HILMANN,HILLIARD ROME RD & MANOR PARK DR,39.963155,-83.146522
HENKNIE,W HENDERSON RD & KNIGHTSBRIDGE BLVD,40.052375,-83.042173
HILGLES,HILLIARD ROME RD & GLENCHESTER DR,39.95889,-83.145962
HENKNIW,W HENDERSON RD &  KNIGHTSBRIDGE BLVD,40.052661,-83.04209
HILBEAN,HILLIARD ROME RD & BEACON HILL RD,39.955169,-83.145593
HILBEAS,HILLIARD ROME RD & BEACON HILL RD,39.955204,-83.145806
HENKENW,W HENDERSON RD & KENNY RD,40.05322,-83.050263
HENKENE,W HENDERSON RD & KENNY RD,40.052935,-83.049932
WESWPRS,WESTWOODS BLVD & WESTWOODS PARK & RIDE,39.950409,-83.146968
WESWPRN,WESTWOODS BLVD & WESTWOODS PARK & RIDE,39.950374,-83.146755
HENWINW,W HENDERSON RD & WINTERSET DR,40.053423,-83.057525
WESRUSN,WESTWOODS BLVD & RUSTLING WAY LN,39.948535,-83.147031
WESRUSS,WESTWOODS BLVD & RUSTLING WAY LN,39.948481,-83.147243
HENWINE,W HENDERSON RD & WINTERSET DR,40.053137,-83.057571
WESMIDN,WESTWOODS BLVD & MID DAY DR,39.946858,-83.146611
WESMIDS,WESTWOODS BLVD &  MID DAY DR,39.946893,-83.146824
HENLARW,W HENDERSON RD & LARWELL DR,40.053558,-83.062504
SULWESE1,SULLIVANT AVE & WESTWOODS BLVD,39.944456,-83.147168
HENLARE,W HENDERSON RD & LARWELL DR,40.053265,-83.061935
SULNORW,SULLIVANT AVE & NORTON RD,39.943735,-83.142112
HENREEE,W HENDERSON RD & REED RD,40.053801,-83.066809
SULNORE,SULLIVANT AVE & NORTON RD,39.94346,-83.141532
HENREEW,W HENDERSON RD & REED RD,40.054024,-83.066857
161KARW,STATE RTE 161 & KARL RD,40.087324,-82.975638
HENGETW1,W HENDERSON RD & GETTYSBURG RD,40.056166,-83.07241
SULMURE,SULLIVANT AVE & S MURRAY HILL RD,39.940797,-83.12668
HENDIEW1,W HENDERSON RD & DIERKER RD,40.057215,-83.075097
HENDIEE,W HENDERSON RD & DIERKER RD,40.057063,-83.07518
COLGROS,COLLEGE ST & GROVE ST,39.855459,-82.886188
COLGRON,COLLEGE ST & GROVE ST,39.85603,-82.885929
COLMAIS,COLLEGE ST & MAIN ST,39.851987,-82.886517
HUDJOYW,E HUDSON ST & JOYCE AVE,40.013524,-82.961906
BRIBINE,BRIGGS RD & BINNS BLVD,39.93155,-83.08064
HUDJOYE,E HUDSON ST & JOYCE AVE,40.01338,-82.962355
HUDCLEW,E HUDSON ST & CLEVELAND AVE,40.013777,-82.967899
HUDCLEE,E HUDSON ST & CLEVELAND AVE,40.013608,-82.96765
HUDDREW,E HUDSON ST & DRESDEN ST,40.013988,-82.972698
BRIBRIW,BRIGGS RD & S BRINKER AVE,39.93288,-83.085697
HUDDREE,E HUDSON ST & DRESDEN ST,40.013809,-82.972296
BRIBIRE,BRIGGS RD & S BRINKER AVE,39.932524,-83.084952
HUDONTW,E HUDSON ST & ONTARIO ST,40.014189,-82.977414
HUDONTE,E HUDSON ST & ONTARIO ST,40.014002,-82.976693
DEMSHON,DEMOREST RD SHOPPING CENTER,39.929703,-83.090196
HUDMCGE,E HUDSON ST & MCGUFFEY RD,40.014274,-82.981752
CLIMCCW,CLIME RD & MCCARLEY DR,39.928437,-83.09469
CLIMCCE,CLIME RD & MCCARLEY DR,39.928294,-83.094831
CLIWEDW,CLIME RD & WEDGEWOOD DR,39.928904,-83.097537
CLIWEDE,CLIME RD & WEDGEWOOD DR,39.928752,-83.097631
161AMBW,STATE RTE 161 & AMBLESIDE DR,40.087568,-82.981341
CLIHOLW,CLIME RD & HOLLY HILL DR,39.930322,-83.10296
CLIHOLE,CLIME RD & HOLLY HILL DR,39.930161,-83.103007
161SATE,STATE RTE 161 & SATINWOOD DR,40.087256,-82.980891
CLISAVW,CLIME RD & SAVANNAH DR,39.931207,-83.106883
CLISAVE,CLIME RD & SAVANNAH DR,39.931046,-83.106953
CLIBIGW,CLIME RD & BIG RUN PARK ACCESS RD,39.931967,-83.110557
SUNPATN,SUNBURY RD & PATRIOT BLVD,40.042525,-82.92949
SUNPATS,SUNBURY RD & PATRIOT BLVD,40.042561,-82.929703
CLIBIGE,CLIME RD & BIG RUN PARK ACCESS RD,39.931824,-83.110662
SUNMCUN,SUNBURY RD & MCCUTCHEON RD,40.03441,-82.932592
SUNCASN,SUNBURY RD & N CASSADY,40.027011,-82.933353
MCNBROS,MCNAUGHTEN RD & E BROAD ST,39.979743,-82.836329
SUNAGLS,SUNBURY RD & AGLER RD,40.027046,-82.933566
CLIGEON,CLIME RD & GEORGESVILLE RD,39.932752,-83.115388
SUNSUNN,SUNBURY RD & SUNBURY RIDGE DR,40.013507,-82.934261
GEOKRIW,GEORGESVILLE SERVICE RD & KRIEGER ST,39.918332,-83.135639
SUNSUNS,SUNBURY RD & SUNBURY RIDGE DR,40.013507,-82.934474
MOCWOOW,MOCK RD & WOODLAND AVE,40.011781,-82.953572
GEOKRIE,GEORGESVILLE SERVICE RD & KRIEGER ST,39.918334,-83.134837
GEOLONW,GEORGESVILLE SERVICE RD & LONE EAGLE ST,39.916834,-83.138974
SULMURW,SULLIVANT AVE & S MURRAY HILL RD,39.940958,-83.126634
GEOLONE,GEORGESVILLE SERVICE RD & LONE EAGLE ST,39.917229,-83.13776
SULINDE,SULLIVANT AVE & INDUSTRIAL MILE RD,39.939386,-83.118599
GEONORE,GEORGESVILLE RD & NORTON RD,39.915521,-83.143714
SULINDW,SULLIVANT AVE & INDUSTRIAL MILE RD,39.939652,-83.11912
PARMOCS,PARKWOOD AVE & MOCK RD,40.012001,-82.956704
MOCPARW,MOCK RD & PARKWOOD AVE,40.011904,-82.956148
GEONORW,GEORGESVILLE RD & NORTON RD,39.915083,-83.143842
NORCHAS,NORTON RD & CHANWICK DR,39.919215,-83.144118
NORBRON1,NORTON RD & BRODIE DR,39.919295,-83.143905
NORKENS,NORTON RD & KENDRICK DR,39.921812,-83.144163
NORKENN,NORTON RD & KENDRICK DR,39.921964,-83.143951
NORAPPN,NORTON RD & APPLEBY DR,39.926953,-83.143994
NORBAYS,NORTON RD & BAYTREE DR,39.926881,-83.144207
NORLINN,NORTON RD & LINDBERGH BLVD,39.928675,-83.144013
NORLINS,NORTON RD & LINDBERGH BLVD,39.928603,-83.144225
NORHALN,NORTON RD & HALL RD,39.930638,-83.144257
NORHALS,NORTON RD & HALL RD,39.930504,-83.144433
NORWESN,NORTON RD & WESTBURY DR,39.933734,-83.144777
NORCHES,NORTON RD & CHESTERVIEW DR,39.933314,-83.145023
NORWESN1,NORTON RD & WESLIEGH RUN DR,39.936708,-83.143891
NORCLAS,NORTON RD & CLAIRBROOK AVE,39.936207,-83.144255
NORBRAN,NORTON RD & BRANDENBERRY DR,39.939753,-83.14297
NORFLOS,NORTON RD & FLORAL CIR S,39.939806,-83.143183
NORSULN,NORTON RD & SULLIVANT AVE,39.943138,-83.141944
NORSULS,NORTON RD & SULLIVANT AVE,39.943798,-83.141959
NOROWEN,NORTON RD & OWEN ST,39.946174,-83.141082
NOROWES,NORTON RD & OWEN ST,39.946174,-83.141307
NORPALN,NORTON RD & PALMETTO ST,39.949746,-83.139974
NORPALS,NORTON RD & PALMETTO ST,39.949085,-83.140432
NORGRES1,NORTON RD & GREEN ST,39.950809,-83.139825
KINOLEW1,KING AVE & OLENTANGY TRAIL,39.990835,-83.022948
KINOLEE1,KING AVE & OLENTANGY TRAIL,39.990711,-83.022901
CHALEOS,N CHAMPION AVE & LEONARD AVE,39.978506,-82.968261
161CLEW,STATE RTE 161 AND CLEVELAND AVE,40.085255,-82.951453
BOBBELN,BOBCAT AVE & 1ST AVE,39.980752,-83.028644
BOBBELS,BOBCAT AVE & 1ST AVE,39.980716,-83.028856
BOBBURN,BOBCAT AVE & BURR AVE,39.976853,-83.027571
BOBBURS,BOBCAT AVE & BURR AVE,39.975032,-83.027662
TRELANS1,TREMONT RD & LANGHAM RD,40.02059,-83.06162
TREINCS,TREMONT RD & INCHCLIFF RD,40.017551,-83.064318
TRENORS,TREMONT RD & NORTHAM RD,40.012269,-83.068936
2100TRS,2100 TREMONT CENTER,40.013636,-83.067747
MEIPOLN,MEIJERS & POLARIS WOODS BLVD,40.150499,-82.923907
GATTOYS,GATEWAY CT & TOY RD,39.851837,-82.930043
TOYGATW,TOY RD & WESTPOINT PKWY,39.85222,-82.931128
AMAZONS,AMAZON DR,39.8461,-82.928705
TOYALUW,TOY RD & ALUM CREEK DR,39.85244,-82.937615
TOYALUE,TOY RD & ALUM CREEK DR,39.85227,-82.937437
PORROHS,PORT RD & ROHR RD,39.841782,-82.924563
POLAFRE,POLARIS PKWY & AFRICA RD,40.146046,-82.938503
POLPOLE,POLARIS PKWY & POLARIS WOODS BLVD,40.147417,-82.92889
POLPOLW,POLARIS PKWY & POLARIS WOODS BLVD,40.147765,-82.928535
POLSTAE,POLARIS PKWY & N STATE ST,40.147205,-82.924449
STAPOLN,N STATE ST & POLARIS PKWY,40.147732,-82.923218
GRECENE,GREENWAY AVE & CENTAB DR,39.973919,-82.956158
GRECLIE,GREENWAY AVE & CLIFTON AVE,39.971406,-82.949929
318AGL,3158 AGLER RD,40.02083,-82.924623
STEWORN,STELZER RD & WORTH AVE,40.055003,-82.90967
STEWORS,STELZER RD & WORTH AVE,40.054378,-82.909693
STEMORN1,STELZER RD & MORSE RD,40.058117,-82.910228
STEMORS1,STELZER RD & MORSE RD,40.057001,-82.910712
HARHEAE,HARD RD & HEATHERMOOR DR,40.117678,-83.08419
STAHARN,STANDBURN RD & HARD RD,40.117943,-83.080344
SUMSUTW,SUMMER DR & SUTTER PKWY,40.121259,-83.083254
SUMSAWW,SUMMER DR & SAWMILL COMMONS LN,40.120782,-83.085466
SUM2555W,2555 SUMMER DR,40.121455,-83.08819
ALU1755N,1755 ALUM CREEK DR,39.931017,-82.943352
5139PARE,5139 PARKCENTER AVE,40.079049,-83.125404
5054PARW,5054 PARKCENTER AVE,40.07921,-83.125546
1333FIEN,1333 FIELDS AVE,39.990782,-82.99159
1333FIES,1333 FIELDS AVE,39.990791,-82.991803
CHATORS,N CHAMPION & TORONTO ST,39.976114,-82.968434
CHAMARN,N CHAMPION AVE & MARYLAND AVE,39.978354,-82.968107
KIMKIMW,KIMBERLY PKWY N & KIMBERLY PKWY E,39.92616,-82.883886
KIMSEVW,KIMBERLY PKWY N & SEVILLE AVE,39.926222,-82.886601
KIMPETW,KIMBERLY PKWY & PETZINGER RD,39.924605,-82.890272
KIMCANW,KIMBERLY PKWY N & CANAL BAY WAY,39.923177,-82.893128
HAMREIN,S HAMILTON RD & REINEAU DR,39.906829,-82.881307
HAMEASN1,S HAMILTON RD & EASTLAND SQUARE DR,39.913148,-82.880743
HAMEASS,S HAMILTON RD & EASTLAND SQUARE DR,39.912773,-82.880919
HAMHOTS,S HAMILTON RD & HOTT RD,39.906624,-82.881461
KENKINN1,KENNY RD & KINNEAR RD,39.997915,-83.035253
HUDADAE,E HUDSON ST & ADAMS AVE,40.015167,-83.006609
HUDDAYE,E HUDSON ST & DAYTON AVE,40.015348,-83.004541
KENKINS1,KENNY RD KINNEAR RD,39.997603,-83.034886
SCHKARE,SCHROCK RD & KARL RD,40.105229,-82.97427
SCHSKYE,SCHROCK RD & SKYWAE DR,40.106269,-82.969207
SCHSHAE,SCHROCK RD & SHARON WOODS BLVD,40.107122,-82.963184
SHAHEAS,SHARON WOODS BLVD & HEARTHSTONE AVE,40.101348,-82.962608
SHAMEAS,SHARON WOODS BLVD & MEANDER DR,40.097849,-82.962864
SHASKYS,SHARON WOODS BLVD & SKYWAE DR,40.095294,-82.965297
FISMTHE,FISHINGER RD & MT HOLYOKE RD,40.024077,-83.05196
FISSTAE,FISHINGER RD & N STAR RD,40.023745,-83.047148
GATAMAS,GATEWAY CT & AMAZON DR,39.848474,-82.928165
GATAMAN,GATEWAY CT & AMAZON DR,39.848742,-82.927741
BRIHIGE,E BRIDGE ST & N HIGH ST,40.099531,-83.113421
RINBLAW,RINGS RD & BLAZER PKWY,40.084161,-83.130817
BLARINN1,BLAZER PKWY & RINGS RD,40.084465,-83.130428
WOEEMEE,WOERNER TEMPLE RD & EMERALD PKWY,40.08435,-83.142471
EMEWOES,EMERALD PKWY & WOERNER TEMPLE RD,40.084098,-83.143464
KENKINN2,KENNY RD & KING AVE,39.991515,-83.035203
CHAMTVN,N CHAMPION AVE & MT VERNON AVE,39.972981,-82.968016
CHAMTVS,N CHAMPION AVE & MT VERNON AVE,39.972722,-82.96824
LONCHAW,E LONG ST & N CHAMPION AVE,39.968723,-82.968837
FREFAIE1,FREBIS AVE & FAIRWOOD AVE,39.934071,-82.954677
BREDELN,BRENTNELL AVE & DELAVAN DR,40.010365,-82.94785
OHILONS1,N OHIO AVE & E LONG ST,39.968115,-82.9701
GEOBOLE,GEORGESVILLE SERVICE RD & BOLTONFIELD ST,39.919452,-83.129506
AMAZONN,AMAZON DR,39.845814,-82.928528
EDG3RDS,EDGHILL RD & W 3RD AVE,39.984526,-83.029302
3RDEDGW1,W 3RD AVE & EDGEHILL RD,39.984552,-83.029869
BOBEDGS,BOBCAT AVE & EDGEHILL RD,39.983857,-83.029478
BROBELE,W BROAD ST & BELLE ST,39.961205,-83.008391
MOURIDS,MOUNTVIEW RD & RIDGECLIFF RD,40.023294,-83.072727
RENHILE,RENNER RD & HILLIARD ROME RD,39.981176,-83.149795
WALSPRS,N WALL ST & W SPRING ST,39.966138,-83.002282
WHISEYW1,E WHITTIER ST & SEYMOUR AVE,39.943084,-82.955078
WHISEYE,E WHITTIER ST & SEYMOUR AVE,39.942968,-82.95548
298HAMN,298 HAMILTON RD,40.01134,-82.867034
TAYBRON1,TAYLOR STATION RD & E BROAD ST,39.979754,-82.843464
4015TH,4018 E FIFTH AVE,39.986436,-82.89475
3995TH,3990 E FIFTH AVE,39.986222,-82.894336
SOUTER2A,COTA TRANSIT TERMINAL BAY 2 ARRIVE,39.956922,-82.999005
SOUTR10L,COTA TRANSIT TERMINAL BAY 10 LEAVE,39.957556,-82.999195
DEMBRIS1,DEMOREST RD & BRIGGS RD,39.933014,-83.090195
BRIDEM,BRIGGS RD & DEMOREST RD,39.933569,-83.089406
152LEOW,1527 LEONARD AVE,39.97925,-82.963454
EASTER9,EASTON TERMINAL BAY 9,40.060727,-82.909145
EASTER8,EASTON TERMINAL BAY 8,40.060727,-82.909145
EASTER7,EASTON TERMINAL BAY 7,40.060727,-82.909145
EASTER6,EASTON TERMINAL BAY 6,40.060727,-82.909145
EASTER5,EASTON TERMINAL BAY 5,40.060727,-82.909145
EASTER4,EASTON TERMINAL BAY 4,40.060727,-82.909145
EASTER3,EASTON TERMINAL BAY 3,40.060727,-82.909145
EASTER2,EASTON TERMINAL BAY 2,40.060727,-82.909145
EASTER1,EASTON TERMINAL BAY 1,40.060727,-82.909145
BROOLEW,W NORTH BROADWAY & OLENTANGY RIVER RD,40.029772,-83.032682
NEIVINS,NEIL AVE & VINE ST,39.971021,-83.00958
BROLIME,E BROAD ST & THE LIMITED,39.986901,-82.775611
EDG5TH,EDGEHILL RD & W 5TH AVE,39.987623,-83.029298
CLATAYW,CLAYCRAFT RD & TAYLOR STATION RD,39.992596,-82.84046
GREGROS,GREEN POINTE DR S & GROVEPORT RD,39.855669,-82.902769
GREGRON,GREEN POINTE DR S & GROVEPORT RD,39.855669,-82.902557
GRE592N,5920 GREEN POINTE DR S,39.847547,-82.904899
GRE590S,5905 GREEN POINTE DR S,39.847431,-82.905406
GRESALN,GREEN POINTE DR S & SALTZGARBER RD,39.846502,-82.907351
GRESALS,GREEN POINTE DR S & SALTZGARBER RD,39.846662,-82.907398
COMGREN,COMMERCE CENTER DR & GREEN POINTE DR S,39.846473,-82.912315
COMGRES,GREEN POINTE DR S & COMMERCE CENTER DR,39.84667,-82.911867
COMROHN,COMMERCE CENTER DR & ROHR RD,39.841306,-82.912736
COMROHS,COMMERCE CENTER DR & ROHR RD,39.841038,-82.912972
KIN1218W,1218 KINNEAR RD,39.998261,-83.042533
KIN1197E,1197 KINNEAR RD,39.998109,-83.042757
KINSTAE,KING AVE & NORTH STAR AVE,39.991666,-83.048413
KINSTAW,KING AVE & NORTH STAR AVE,39.991844,-83.048744
KINKENE1,KING AVE & KENNY RD,39.99115,-83.034753
NORTRES1,NORTH STAR RD & TREMONT RD,39.993897,-83.048879
HANWASW,HANFORD ST & WASHINGTON ST,39.936516,-82.985955
SOUTER2L,COTA TRANSIT TERMINAL BAY 2 LEAVE,39.957556,-82.999136
8860SMIT,8860 SMITHS MILL RD,40.089342,-82.750321
8095INNO,8095 INNOVATION CT,40.089077,-82.74392
2570BEEC,2570 BEECH RD,40.089899,-82.754579
400CREEK,400 CREEKSIDE PKWY,39.855058,-82.94592
2315CREE,2315 CREEKSIDE PKWY,39.847203,-82.948316
GRATOWS,S GRANT AVE & E TOWN ST,39.959332,-82.9904
